Name,Lat,Long,Lat/Long,Price
P & S DELI GROCERY 730 COLUMBUS AVENUE New York NY 10025,40.7925587,-73.9680572,"{lng=-73.96805719999999, lat=40.7925587}",$6.00 
LEXLER DELI 405 LEXINGTON AVENUE New York NY 10174,40.7516269,-73.97535,"{lng=-73.97534999999999, lat=40.7516269}",$5.75 
PLAZA BAGELS & DELI 73 NEW DORP PLAZA New York NY 10306,40.5734023,-74.1177623,"{lng=-74.1177623, lat=40.5734023}",$5.00 
BEN-BEST DELI & RESTAURANT 96-40 QUEENS BOULEVARD New York NY 11374,40.7295323,-73.8613499,"{lng=-73.8613499, lat=40.7295323}",$3.50 
STEVE CHU'S DELI & GROCERY 3406 10 STREET New York NY 11106,40.7595044,-73.9271644,"{lng=-73.9271644, lat=40.7595044}",$3.00 
NORDIC DELICACIES 6909 3 AVENUE New York NY 11209,40.6212119,-74.0329499,"{lng=-74.03294989999999, lat=40.6212119}",$5.25 
SAL'S DELI 129-08 20 AVENUE New York NY 11356,40.7901266,-73.8477874,"{lng=-73.8477874, lat=40.7901266}",$6.50 
DOWNTOWN DELI 107 CHURCH STREET New York NY 10007,40.7132925,-74.0092084,"{lng=-74.00920839999999, lat=40.7132925}",$5.00 
BULLY'S DELI 759 BROADWAY New York NY 10003,40.7309346,-73.9925306,"{lng=-73.9925306, lat=40.7309346}",$4.75 
TONY'S DELI 1069 WYCKOFF AVENUE New York NY 11385,40.694924,-73.902463,"{lng=-73.902463, lat=40.694924}",$5.50 
PJ BERNSTEIN DELI & RESTAURANT 1215 THIRD AVENUE New York NY 10021,40.7684788,-73.9612178,"{lng=-73.9612178, lat=40.7684788}",$6.50 
KANES DELI DINER 4415 COLLEGE POINT BOULEVARD New York NY 11355,40.753323,-73.832379,"{lng=-73.832379, lat=40.75332299999999}",$3.50 
MILL BASIN KOSHER DELI 5823 AVENUE T New York NY 11234,40.6155739,-73.9180116,"{lng=-73.9180116, lat=40.6155739}",$6.75 
KOSHER DELIGHT 1223 AVENUE J New York NY 11230,40.625169,-73.9633849,"{lng=-73.9633849, lat=40.625169}",$3.75 
BEL PAESE ITALIAN DELI 459 LEXINGTON AVENUE New York NY 10017,40.7534139,-73.9743584,"{lng=-73.9743584, lat=40.7534139}",$5.00 
TAL BAGELS DELI 975-979 FIRST AVENUE New York NY 10022,40.7563113,-73.9646617,"{lng=-73.9646617, lat=40.7563113}",$4.50 
BEN ASH DELICATESSEN 855 7 AVENUE New York NY 10019,40.7686973,-73.9918181,"{lng=-73.9918181, lat=40.7686973}",$6.00 
CHAMP'S DELI 71 BROADWAY New York NY 10006,40.7076019,-74.0128495,"{lng=-74.0128495, lat=40.7076019}",$6.25 
STAGE DOOR DELI 26 VESEY STREET New York NY 10007,40.7121042,-74.0097128,"{lng=-74.0097128, lat=40.7121042}",$5.00 
SMILER'S DELI 532 MADISON AVENUE New York NY 10022,40.7605744,-73.9738917,"{lng=-73.9738917, lat=40.7605744}",$6.75 
GLORY DELI 4630 VERNON BOULEVARD New York NY 11101,40.746056,-73.953298,"{lng=-73.953298, lat=40.746056}",$3.00 
SZECHUAN DELIGHT RESTAURANT 152 7 AVENUE New York NY 11215,40.6681669,-73.9800645,"{lng=-73.9800645, lat=40.6681669}",$6.50 
HOME DELI & CATERING 71-35 73 PLACE New York NY 11385,40.6980708,-73.8948295,"{lng=-73.8948295, lat=40.6980708}",$3.75 
J AND L DELI 682 5 AVENUE New York NY 11215,40.6681669,-73.9800645,"{lng=-73.9800645, lat=40.6681669}",$6.00 
DELI PLUS ( INSIDE PORT AUTHORITY STATION) 625 8 AVENUE New York NY 10018,40.755322,-73.9932872,"{lng=-73.9932872, lat=40.755322}",$5.00 
CHARLE'S CORNER RESTAURANT & DELI 537 PARK AVENUE New York NY 11205,40.6971322,-73.9549067,"{lng=-73.9549067, lat=40.6971322}",$5.75 
SANDY'S DELI & ROTI 12110 LIBERTY AVENUE New York NY 11419,40.686825,-73.821939,"{lng=-73.821939, lat=40.686825}",$5.25 
CHICKEN DELICIOUS 286 KINGS HIGHWAY New York NY 11223,40.604918,-73.9798859,"{lng=-73.9798859, lat=40.604918}",$6.00 
PARIS GOURMET DELI 49-11 VERNON BOULEVARD New York NY 11101,40.7429739,-73.953694,"{lng=-73.953694, lat=40.7429739}",$6.75 
DON PEPIS DELICATESSEN 0 AMTRAK LEVEL New York NY 10001,40.7536854,-73.9991637,"{lng=-73.9991637, lat=40.75368539999999}",$6.00 
BEN'S KOSHER DELI & RESTAURANT 211-37 26 AVENUE New York NY 11360,40.7779482,-73.7801447,"{lng=-73.7801447, lat=40.7779482}",$5.50 
LA DELICE PASTRY SHOP 372 3 AVENUE New York NY 10016,40.74727,-73.9800645,"{lng=-73.9800645, lat=40.74727}",$4.25 
PIAXTLA ES MEXICO DELI 505 51 STREET New York NY 11220,40.6385229,-74.0153231,"{lng=-74.0153231, lat=40.6385229}",$4.50 
FOOD MART DELI 1321 YORK AVENUE New York NY 10021,40.7659558,-73.9544096,"{lng=-73.95440959999999, lat=40.7659558}",$6.00 
TREVI DELI 48 UNION SQUARE EAST New York NY 10003,40.736167,-73.9892148,"{lng=-73.9892148, lat=40.73616699999999}",$4.50 
CROWN GOURMET DELI 1674 BROADWAY New York NY 10019,40.7628094,-73.982872,"{lng=-73.982872, lat=40.76280939999999}",$3.50 
BAGELS & CREAM DELI 80-02 SURREY PLACE New York NY 11432,40.7262928,-73.7889465,"{lng=-73.7889465, lat=40.7262928}",$6.75 
BELLROSE DELI 247-73 JAMAICA AVENUE New York NY 11426,40.7240602,-73.7257541,"{lng=-73.7257541, lat=40.7240602}",$5.75 
BAGELS DELI 7039 PARSONS BOULEVARD New York NY 11365,40.7312772,-73.8107462,"{lng=-73.8107462, lat=40.7312772}",$5.25 
TIMMY'S DELI 11102 ROOSEVELT AVENUE New York NY 11368,40.751408,-73.855497,"{lng=-73.855497, lat=40.751408}",$3.50 
HELLO DELI 213 WEST 53 STREET New York NY 10019,40.7686973,-73.9918181,"{lng=-73.9918181, lat=40.7686973}",$3.50 
DI LUVIO'S DELI 3000 47 AVENUE New York NY 11101,40.7443091,-73.9418603,"{lng=-73.9418603, lat=40.7443091}",$5.25 
LITE DELIGHTS 51 EAST HOUSTON STREET New York NY 10012,40.7246247,-73.9945985,"{lng=-73.9945985, lat=40.7246247}",$6.00 
LA BAGEL DELIGHT 90 COURT STREET New York NY 11201,40.691189,-73.9918686,"{lng=-73.9918686, lat=40.691189}",$6.25 
HAMILTON DELI 1129 AMSTERDAM AVENUE New York NY 10025,40.8064211,-73.9609312,"{lng=-73.96093119999999, lat=40.8064211}",$5.00 
CAPRI IV DELI 2073 BARTOW AVE New York NY 10475,40.8695788,-73.8281765,"{lng=-73.8281765, lat=40.8695788}",$6.75 
AIRPORT DELI 84-20 ASTORIA BOULEVARD New York NY 11370,40.7644867,-73.8845333,"{lng=-73.8845333, lat=40.7644867}",$6.75 
LUCKY DELI 12 EAST 37 STREET New York NY 10016,40.74727,-73.9800645,"{lng=-73.9800645, lat=40.74727}",$6.25 
101 DELI 10016 ROCKAWAY BEACH BOULEVARD New York NY 11694,40.5838155,-73.8216636,"{lng=-73.8216636, lat=40.5838155}",$4.50 
WEST 53RD GOURMET DELI 1301 AVENUE OF THE AMERICAS New York NY 10019,40.7616971,-73.9801263,"{lng=-73.9801263, lat=40.7616971}",$5.25 
BAGEL DELI / VILLAGE GREEN DELI 262 N ARDEN AVE New York NY 10312,40.5523287,-74.1910312,"{lng=-74.1910312, lat=40.5523287}",$6.50 
PIZZA DELI PLUS 2436 STILLWELL AVENUE New York NY 11223,40.587915,-73.983965,"{lng=-73.983965, lat=40.587915}",$5.25 
TOWNE DELI & PIZZA 5373 ARTHUR KILL ROAD New York NY 10307,40.513571,-74.248143,"{lng=-74.248143, lat=40.513571}",$3.25 
CARNEGIE DELICATESSEN & RESTAURANT 854 7 AVENUE New York NY 10019,40.7686973,-73.9918181,"{lng=-73.9918181, lat=40.7686973}",$3.00 
SPEEDY DELI 1271 BROADWAY New York NY 10001,40.7482511,-73.9884413,"{lng=-73.98844129999999, lat=40.7482511}",$6.75 
BEN'S DELI 209 WEST 38 STREET New York NY 10018,40.755322,-73.9932872,"{lng=-73.9932872, lat=40.755322}",$3.25 
ACAPULCO DELI & RESTAURANT 1116 MANHATTAN AVE New York NY 11222,40.7367143,-73.9550847,"{lng=-73.9550847, lat=40.7367143}",$3.25 
MILLIE'S DELI 13-01 JACKSON AVENUE New York NY 11101,40.7442847,-73.9498136,"{lng=-73.9498136, lat=40.7442847}",$5.00 
FOOD FAIR DELI & PIZZA 433 WEST 34 STREET New York NY 10001,40.7536854,-73.9991637,"{lng=-73.9991637, lat=40.75368539999999}",$6.75 
GRAND STREET DELI & MINI MARKET 42 GRAND STREET New York NY 10013,40.7158082,-73.9656821,"{lng=-73.9656821, lat=40.7158082}",$3.75 
LANE DELI & CATERING 75 MAIDEN LANE New York NY 10038,40.7077614,-74.0075542,"{lng=-74.0075542, lat=40.7077614}",$6.50 
L & M ITALIAN DELI & CATERING 3608 31 STREET New York NY 11106,40.7595044,-73.9271644,"{lng=-73.9271644, lat=40.7595044}",$5.75 
MILLION DELI 1624 2 AVENUE New York NY 10028,40.7766412,-73.9521468,"{lng=-73.9521468, lat=40.77664120000001}",$3.00 
SCALINI FEDELI 165 DUANE STREET New York NY 10013,40.7174312,-74.009317,"{lng=-74.009317, lat=40.7174312}",$4.75 
3 DELI & GRILL 133 EAST 55 STREET New York NY 10022,40.7593941,-73.9697795,"{lng=-73.9697795, lat=40.7593941}",$4.75 
DELIGHT DONUT 66-91 FRESH POND ROAD New York NY 11385,40.7061804,-73.8967614,"{lng=-73.8967614, lat=40.7061804}",$6.75 
CONTINENTAL LUNCHEONETTE & DELI 104-03 METROPOLITAN AVENUE New York NY 11375,40.710323,-73.848705,"{lng=-73.848705, lat=40.710323}",$6.00 
BEST DELI CAFE 986 ATLANTIC AVENUE New York NY 11238,40.6802252,-73.9613869,"{lng=-73.9613869, lat=40.6802252}",$4.50 
HANSON GOURMET DELI & CAFE 17 HANSON PLACE New York NY 11217,40.6853237,-73.9776008,"{lng=-73.97760079999999, lat=40.6853237}",$3.50 
FRIENDS DELI 245-05 JAMAICA AVENUE New York NY 11426,40.7234013,-73.7275228,"{lng=-73.7275228, lat=40.7234013}",$4.25 
HIGHWAY DELI AND COFFEE SHOP 61-11 173 STREET New York NY 11365,40.7421943,-73.7889689,"{lng=-73.7889689, lat=40.7421943}",$5.00 
ONE DELI RESTAURANT 536 3 AVENUE New York NY 11215,40.6681669,-73.9800645,"{lng=-73.9800645, lat=40.6681669}",$6.00 
RALPH'S II DELI 200-01 32 AVENUE New York NY 11361,40.7622954,-73.7742616,"{lng=-73.7742616, lat=40.7622954}",$4.00 
CONSTANTINES DELI 20510 48 AVENUE New York NY 11364,40.7469886,-73.7536695,"{lng=-73.7536695, lat=40.7469886}",$5.50 
NEW ANDY'S DELI 873 BROADWAY New York NY 10003,40.7381889,-73.9903303,"{lng=-73.99033030000001, lat=40.7381889}",$4.75 
STROKOS GOURMET DELI 1090 AMSTERDAM AVE New York NY 10025,40.8055078,-73.9625202,"{lng=-73.9625202, lat=40.8055078}",$5.25 
PIZZA HUT DELIVERY 60-51 MYRTLE AVE New York NY 11385,40.700849,-73.896535,"{lng=-73.896535, lat=40.700849}",$5.00 
LAHORE DELICATESSEN 132 CROSBY STREET New York NY 10012,40.7250632,-73.9976946,"{lng=-73.9976946, lat=40.7250632}",$6.25 
STAR LITE DELI 212 WEST 44 STREET New York NY 10036,40.7602619,-73.9932872,"{lng=-73.9932872, lat=40.7602619}",$5.00 
DELIAS LOUNGE CAFE 9224 3 AVENUE New York NY 11209,40.6212119,-74.0329499,"{lng=-74.03294989999999, lat=40.6212119}",$4.75 
NATURALLY DELICIOUS 225 BROADWAY New York NY 10007,40.7119156,-74.0085295,"{lng=-74.0085295, lat=40.7119156}",$5.00 
UNITED GROCERY & DELI 177 HUDSON STREET New York NY 10013,40.722532,-74.008475,"{lng=-74.00847499999999, lat=40.722532}",$4.75 
TIMES DELI & CAFE 158 WEST 44 STREET New York NY 10036,40.7602619,-73.9932872,"{lng=-73.9932872, lat=40.7602619}",$4.75 
KATZ'S DELICATESSEN 205 EAST HOUSTON STREET New York NY 10002,40.7135097,-73.9859414,"{lng=-73.9859414, lat=40.7135097}",$5.00 
CITY ISLAND DELI 520 CITY ISLAND AVE New York NY 10464,40.852584,-73.789134,"{lng=-73.78913399999999, lat=40.852584}",$4.25 
S & T BAGELS & DELI 463 FOREST AVENUE New York NY 10301,40.6306891,-74.1048855,"{lng=-74.1048855, lat=40.6306891}",$4.50 
ALL AMERICAN DELI 42 WATER STREET New York NY 10004,40.703561,-74.010173,"{lng=-74.010173, lat=40.703561}",$4.50 
CHEITO DURAN DELI GROCERY 54-06 FLUSHING AVENUE New York NY 11378,40.714822,-73.913136,"{lng=-73.913136, lat=40.714822}",$4.00 
TOM'S DELICIOUS PIZZA 3161 BROADWAY New York NY 10027,40.8149183,-73.959383,"{lng=-73.959383, lat=40.8149183}",$6.00 
CAFE CELLO DELI 48 WEST 46 STREET New York NY 10036,40.7602619,-73.9932872,"{lng=-73.9932872, lat=40.7602619}",$4.50 
STROKOS PIZZA DELI 888 10 AVENUE New York NY 10019,40.7686973,-73.9918181,"{lng=-73.9918181, lat=40.7686973}",$5.25 
A & B DELI & CATERING 126-20 ROCKAWAY BOULEVARD New York NY 11420,40.674944,-73.810936,"{lng=-73.810936, lat=40.674944}",$4.75 
CHEROKEE DELI 1626 BROADWAY New York NY 11207,40.684789,-73.914368,"{lng=-73.914368, lat=40.68478899999999}",$6.00 
HANOVER GOURMET DELI 3 HANOVER SQUARE New York NY 10004,40.7050324,-74.0097338,"{lng=-74.00973379999999, lat=40.7050324}",$6.50 
SCOTT'S FOOD & DELI 28 WEST 48 STREET New York NY 10036,40.7602619,-73.9932872,"{lng=-73.9932872, lat=40.7602619}",$4.75 
CAFE LA MORENA & DELI 950 3 AVENUE New York NY 11232,40.6560436,-74.0079781,"{lng=-74.0079781, lat=40.6560436}",$6.00 
BIG APPLE DELI 1190 6 AVENUE New York NY 10036,40.7602619,-73.9932872,"{lng=-73.9932872, lat=40.7602619}",$5.25 
HALLMARK DELI 455 NORTH END AVENUE New York NY 10282,40.717521,-74.014503,"{lng=-74.01450299999999, lat=40.717521}",$4.75 
CHINA DELIGHT 722 4 AVENUE New York NY 11232,40.6560436,-74.0079781,"{lng=-74.0079781, lat=40.6560436}",$5.25 
BOULEVARD DELI 3300 NORTHERN BOULEVARD New York NY 11101,40.7517377,-73.9315891,"{lng=-73.9315891, lat=40.7517377}",$6.00 
ROSARIO DELI 22-55 31 STREET New York NY 11105,40.7787902,-73.9065883,"{lng=-73.9065883, lat=40.7787902}",$6.00 
LIBERTY DELI 22 EAST 49 STREET New York NY 10017,40.7519846,-73.9697795,"{lng=-73.9697795, lat=40.7519846}",$6.00 
VISTA HERMOSA DELI RESTAURANT 1201 EVERGREEN AVENUE New York NY 10472,40.8287274,-73.8811705,"{lng=-73.8811705, lat=40.8287274}",$6.75 
POINT VIEW DELI 255 GREENPOINT AVENUE New York NY 11222,40.730884,-73.949413,"{lng=-73.949413, lat=40.730884}",$6.25 
SUNSET RIDGE DELI 5802 5 AVENUE New York NY 11220,40.6385229,-74.0153231,"{lng=-74.0153231, lat=40.6385229}",$3.25 
FORT WASHINGTON BAKERY AND DELI 808 WEST 181 STREET New York NY 10033,40.8508873,-73.9387032,"{lng=-73.93870319999999, lat=40.8508873}",$3.75 
K & H DELI 328 NASSAU AVENUE New York NY 11222,40.7261529,-73.936825,"{lng=-73.936825, lat=40.7261529}",$4.25 
FANCY FOOD DELI 55-14 37 AVENUE New York NY 11377,40.7413334,-73.9036487,"{lng=-73.90364869999999, lat=40.74133339999999}",$6.00 
TULCINGO DELI 111 40-10 JUNCTION BOULEVARD New York NY 11368,40.74885,-73.8692364,"{lng=-73.86923639999999, lat=40.74885}",$3.75 
JOHN'S DELI & GROCERY 6801 5 AVENUE New York NY 11220,40.6385229,-74.0153231,"{lng=-74.0153231, lat=40.6385229}",$4.00 
PLAN DE AYALA DELI-GROCERY 259-261 KINGS HIGHWAY New York NY 11223,40.605505,-73.980986,"{lng=-73.980986, lat=40.605505}",$6.25 
S.R. DELI GROCERY 91-14 43 AVENUE New York NY 11373,40.737975,-73.8801301,"{lng=-73.8801301, lat=40.737975}",$5.25 
ZOIE'S CAFE and DELICATESSEN 49 BEACH STREET New York NY 10013,40.720799,-74.0091255,"{lng=-74.0091255, lat=40.720799}",$5.00 
BROADWAY DELI & BAGEL'S 515 WEST 42 STREET New York NY 10036,40.7602619,-73.9932872,"{lng=-73.9932872, lat=40.7602619}",$3.25 
DELIZIA RISTORANTE 1374 1 AVENUE New York NY 10021,40.7700703,-73.9580246,"{lng=-73.9580246, lat=40.7700703}",$4.00 
GARIBALDI DELI RESTAURANT 100 CANAL STREET New York NY 10304,40.626335,-74.07684,"{lng=-74.07683999999999, lat=40.626335}",$3.25 
SHARAN DELI 314 WEST 39 STREET New York NY 10018,40.755322,-73.9932872,"{lng=-73.9932872, lat=40.755322}",$4.75 
CHRIS SUPER DELI 903 SHERIDAN AVENUE New York NY 10451,40.8270836,-73.9209911,"{lng=-73.9209911, lat=40.8270836}",$3.00 
"DELICIAS CUENCANAS BAR-RESTAURANT DELI, 41-07 99 STREET New York NY 11368",40.7506343,-73.8477874,"{lng=-73.8477874, lat=40.7506343}",$4.50 
BENATERI'S ITALIAN GOURMET DELI 129-21 14 AVENUE New York NY 11356,40.7901266,-73.8477874,"{lng=-73.8477874, lat=40.7901266}",$6.75 
STAR DELI 2718 PITKIN AVENUE New York NY 11208,40.675181,-73.871679,"{lng=-73.871679, lat=40.675181}",$3.50 
BEST OF THE BEST DELICATESSEN 11 PARK PLACE New York NY 10007,40.7130513,-74.0082933,"{lng=-74.00829329999999, lat=40.7130513}",$4.00 
BLINKS DELI 43-01 35 STREET New York NY 11101,40.7443091,-73.9418603,"{lng=-73.9418603, lat=40.7443091}",$6.00 
ONE WAY DELI 26 COURT STREET New York NY 11242,40.6932942,-73.9908107,"{lng=-73.9908107, lat=40.6932942}",$4.50 
SUNSET DELI 4301 4 AVENUE New York NY 11232,40.6560436,-74.0079781,"{lng=-74.0079781, lat=40.6560436}",$6.00 
Andrew & Frank's DELI 2802 23 AVENUE New York NY 11105,40.7787902,-73.9065883,"{lng=-73.9065883, lat=40.7787902}",$5.25 
J.L.H. DELI 307 WEST 38 STREET New York NY 10018,40.755322,-73.9932872,"{lng=-73.9932872, lat=40.755322}",$5.25 
LIEBMAN'S DELI 552 WEST 235 STREET New York NY 10463,40.8803247,-73.9095279,"{lng=-73.9095279, lat=40.8803247}",$5.25 
NEW UNIVERSITY DELI 603 WEST 168 STREET New York NY 10032,40.8409822,-73.9447994,"{lng=-73.9447994, lat=40.8409822}",$6.75 
COUSIN'S DELI RESTAURANT 4102 3 AVENUE New York NY 11232,40.6560436,-74.0079781,"{lng=-74.0079781, lat=40.6560436}",$6.75 
BUTCHER GOURMET DELI 4916 VERNON BOULEVARD New York NY 11101,40.7430108,-73.9542333,"{lng=-73.9542333, lat=40.7430108}",$4.75 
VAN DAM DELI 52-50 VAN DAM STREET New York NY 11101,40.736041,-73.936713,"{lng=-73.936713, lat=40.736041}",$3.25 
LAS DELICIAS 18-01 COLLEGE POINT BOULEVARD New York NY 11356,40.783067,-73.84556,"{lng=-73.84555999999999, lat=40.783067}",$6.25 
MANHATTAN GOURMET DELI 1377 6 AVENUE New York NY 10019,40.7686973,-73.9918181,"{lng=-73.9918181, lat=40.7686973}",$4.50 
CAFE PLAZA DELI 11 BROADWAY New York NY 10004,40.7055269,-74.014346,"{lng=-74.014346, lat=40.7055269}",$3.75 
GO-GO'S DELI & CONVENIENCE 2218 HYLAN BOULEVARD New York NY 10306,40.576258,-74.103343,"{lng=-74.103343, lat=40.576258}",$5.75 
MEXICO LINDO Y ! Q RICO! DELI 497 CONEY ISLAND AVENUE New York NY 11218,40.6454012,-73.9705509,"{lng=-73.97055089999999, lat=40.64540119999999}",$6.25 
KITO DELI 41 WEST 33 STREET New York NY 10001,40.7536854,-73.9991637,"{lng=-73.9991637, lat=40.75368539999999}",$4.25 
ELLEN DELI & GROCERY 289 HUDSON STREET New York NY 10013,40.725708,-74.00781,"{lng=-74.00780999999999, lat=40.725708}",$4.50 
DOMINICAN FOOD R. A. DELI 2180 FOREST AVENUE New York NY 10303,40.6263419,-74.1622795,"{lng=-74.1622795, lat=40.6263419}",$3.25 
MEXICANA DELI GROCERY 339 EAST 204 STREET New York NY 10467,40.8723987,-73.8713099,"{lng=-73.8713099, lat=40.8723987}",$4.75 
BROOKLYN NATIONAL DELI JFK AIRPORT New York NY 11430,40.6413111,-73.7781391,"{lng=-73.77813909999999, lat=40.6413111}",$6.50 
EXPRESS PIZZA AND DELI 90-46 161 STREET New York NY 11432,40.7154518,-73.7919103,"{lng=-73.7919103, lat=40.7154518}",$6.50 
TASTY DELI 775 4 AVENUE New York NY 11232,40.6560436,-74.0079781,"{lng=-74.0079781, lat=40.6560436}",$3.00 
FIVE CORNERS DELI 25-53 18 STREET New York NY 11102,40.7732937,-73.9286341,"{lng=-73.9286341, lat=40.7732937}",$4.75 
SHAMAS DELI 150 WEST 38 STREET New York NY 10018,40.755322,-73.9932872,"{lng=-73.9932872, lat=40.755322}",$5.50 
DOUGLASTON DELICATESSEN 4423 DOUGLASTON PARKWAY New York NY 11363,40.765937,-73.744608,"{lng=-73.744608, lat=40.765937}",$5.00 
38 DELI 968 58 STREET New York NY 11219,40.6310753,-73.9976946,"{lng=-73.9976946, lat=40.6310753}",$3.25 
Tasty Delicious Bakery 1096 RUTLAND ROAD New York NY 11212,40.6643789,-73.923215,"{lng=-73.923215, lat=40.6643789}",$5.00 
DOMAND'S ITALIAN GOURMET DELI & CATERERS 3029 STRATTON ST New York NY 11354,40.7697083,-73.8346909,"{lng=-73.8346909, lat=40.7697083}",$3.75 
25TH DELI 4819 25 AVENUE New York NY 11103,40.7633726,-73.9109977,"{lng=-73.9109977, lat=40.7633726}",$5.00 
K&J PLAZA DELI & SALAD BAR 127 LIVINGSTON STREET New York NY 11201,40.6909916,-73.9886658,"{lng=-73.9886658, lat=40.6909916}",$4.75 
SOON DELI 9221 LIBERTY AVENUE New York NY 11417,40.68039,-73.846144,"{lng=-73.846144, lat=40.68039}",$5.50 
STOP DELI 43-01 31 AVENUE New York NY 11103,40.7633726,-73.9109977,"{lng=-73.9109977, lat=40.7633726}",$3.00 
NICK'S GOURMET DELI 74-15 DITMARS BOULEVARD New York NY 11370,40.768662,-73.894707,"{lng=-73.894707, lat=40.768662}",$6.75 
EL SOL DE MEXICO DELI GROCERY 95-09 SUTPHIN BOULEVARD New York NY 11435,40.7026151,-73.8082507,"{lng=-73.8082507, lat=40.7026151}",$5.50 
BROOK AVENUE DELI & PIZZA 348 BROOK AVENUE New York NY 10454,40.809948,-73.917464,"{lng=-73.917464, lat=40.809948}",$3.75 
HUNAN DELIGHT 752 UNION STREET New York NY 11215,40.6753277,-73.9781954,"{lng=-73.97819539999999, lat=40.6753277}",$4.00 
GREEN TEA DELI 28-18 41 AVENUE New York NY 11101,40.7443091,-73.9418603,"{lng=-73.9418603, lat=40.7443091}",$6.25 
LIBERTY DELI 30 ROCKEFELLER PLAZA New York NY 10112,40.7589426,-73.9793564,"{lng=-73.9793564, lat=40.7589426}",$4.75 
SPARKS DELI RESTAURANT 28-31 BORDEN AVENUE New York NY 11101,40.7389171,-73.9410364,"{lng=-73.9410364, lat=40.73891709999999}",$6.25 
HUNAN DELIGHT MATSUYA 1467 YORK AVENUE New York NY 10075,40.7707045,-73.9512757,"{lng=-73.9512757, lat=40.7707045}",$5.50 
NEW STAR COFFEE SHOP & DELI 3150 BAINBRIDGE AVENUE New York NY 10467,40.8749926,-73.879442,"{lng=-73.87944200000001, lat=40.8749926}",$6.00 
DELI EXPRESS 12605 36 AVENUE New York NY 11368,40.7506343,-73.8477874,"{lng=-73.8477874, lat=40.7506343}",$6.00 
STAR GOURMET DELI & PIZZA 797 6 AVENUE New York NY 10001,40.7536854,-73.9991637,"{lng=-73.9991637, lat=40.75368539999999}",$3.50 
ZANTE DELI RESTAURANT 30-17 39 AVENUE New York NY 11101,40.7443091,-73.9418603,"{lng=-73.9418603, lat=40.7443091}",$3.00 
DELICIOUS CHINESE 1584 ROCKAWAY PARKWAY New York NY 11236,40.6422404,-73.8991196,"{lng=-73.89911959999999, lat=40.6422404}",$4.50 
RUDY'S DELI RESTAURANT 54-30 48 STREET New York NY 11378,40.7224092,-73.9095279,"{lng=-73.9095279, lat=40.7224092}",$6.25 
CHINA DELIGHT RESTAURANT 218-82 HEMPSTEAD AVENUE New York NY 11429,40.712903,-73.735403,"{lng=-73.73540299999999, lat=40.712903}",$3.25 
LITTLE MICHAELS DELI AND SALD BAR 12 EAST GUN HILL ROAD New York NY 10467,40.8961855,-73.8411209,"{lng=-73.84112089999999, lat=40.8961855}",$6.25 
HIS DELI & CAFE 165-54 BAISLEY BOULEVARD New York NY 11434,40.6793722,-73.7777726,"{lng=-73.77777259999999, lat=40.6793722}",$6.50 
DELICIAS MANABITAS RESTAURANT 4205 35 AVENUE New York NY 11101,40.7443091,-73.9418603,"{lng=-73.9418603, lat=40.7443091}",$5.50 
CHOLULA DELI GROCERY 222 WYCKOFF AVENUE New York NY 11237,40.7009654,-73.9141319,"{lng=-73.9141319, lat=40.7009654}",$3.25 
NORTH VILLAGE DELI EMPORIUM 74 8 AVENUE New York NY 10011,40.7464969,-74.0094471,"{lng=-74.0094471, lat=40.7464969}",$3.25 
COLOMBUS AVE DELI & COFE 556 COLUMBUS AVENUE New York NY 10024,40.7871628,-73.9719684,"{lng=-73.9719684, lat=40.7871628}",$5.00 
TAZA CAFE AND DELI 350 PARK AVENUE SOUTH New York NY 10010,40.74182,-73.985529,"{lng=-73.985529, lat=40.74182}",$6.00 
PANADERIA LA MIXTECA POBLANA & DELI 104 VICTORY BOULEVARD New York NY 10301,40.637517,-74.0798,"{lng=-74.07979999999999, lat=40.637517}",$6.75 
CAFE BONJOUR DELI & PIZZA 18 WEST 38 STREET New York NY 10018,40.755322,-73.9932872,"{lng=-73.9932872, lat=40.755322}",$5.25 
FREDDY'S DELI 895 GRAND STREET New York NY 11211,40.712749,-73.938367,"{lng=-73.938367, lat=40.712749}",$4.25 
DOMINICKS DELI 1109 1 AVENUE New York NY 10065,40.7645239,-73.9624327,"{lng=-73.96243270000001, lat=40.7645239}",$4.75 
PUNJABI DELI & RESTAURANT 160-20 46 AVENUE New York NY 11358,40.760743,-73.7977928,"{lng=-73.7977928, lat=40.76074300000001}",$5.25 
SPARKY'S DELI 2828 COLLEGE POINT BOULEVARD New York NY 11354,40.7722223,-73.8448612,"{lng=-73.8448612, lat=40.7722223}",$4.50 
PLAZA DELI 127 JOHN STREET New York NY 10038,40.707361,-74.004762,"{lng=-74.004762, lat=40.707361}",$6.25 
TERRACE VIEW DELI 135 TERRACE VIEW AVENUE New York NY 10463,40.875991,-73.9132,"{lng=-73.9132, lat=40.875991}",$3.25 
DELIGHT 28 RESTAURANT 2830 PELL STREET New York NY 10013,40.7148064,-73.9980331,"{lng=-73.9980331, lat=40.7148064}",$3.75 
MAURICE AVENUE DELI 5904 55 DRIVE New York NY 11378,40.7224092,-73.9095279,"{lng=-73.9095279, lat=40.7224092}",$3.25 
2ND AVENUE DELI 162 EAST 33 STREET New York NY 10016,40.74727,-73.9800645,"{lng=-73.9800645, lat=40.74727}",$3.00 
HAPPY DELI 146-02 45 AVENUE New York NY 11355,40.7493096,-73.8213213,"{lng=-73.8213213, lat=40.7493096}",$3.50 
DELICIAS TROPICAL RESTAURANT 93-16 37 AVENUE New York NY 11372,40.7527924,-73.8801301,"{lng=-73.8801301, lat=40.7527924}",$3.00 
DELI MANJOO BAKERY 133-31 39 AVENUE New York NY 11354,40.7699016,-73.8272029,"{lng=-73.8272029, lat=40.7699016}",$5.50 
MASTER EXPRESS DELI & RESTAURANT 12696 WILLETS POINT BOULEVARD New York NY 11368,40.7578729,-73.841709,"{lng=-73.84170900000001, lat=40.7578729}",$3.00 
COURT DELI RESTAURANT 96 EAST 161 STREET New York NY 10451,40.8187386,-73.9271644,"{lng=-73.9271644, lat=40.8187386}",$5.50 
LAS CHATAS TAQUERIA & DELI GROCERY 599 EAST 184 STREET New York NY 10458,40.8621792,-73.88601,"{lng=-73.88601, lat=40.8621792}",$6.25 
JADESTONE PIZZERIA AND DELI 44574459 3 AVENUE New York NY 10457,40.8441387,-73.8977693,"{lng=-73.8977693, lat=40.84413869999999}",$4.00 
CIVIC DELI 111 WORTH STREET New York NY 10013,40.7160117,-74.0034906,"{lng=-74.00349059999999, lat=40.7160117}",$5.25 
AL'S DELI 458 7 AVENUE New York NY 10001,40.7536854,-73.9991637,"{lng=-73.9991637, lat=40.75368539999999}",$5.75 
TRADER'S EXPRESS DELI 22 BEAVER STREET New York NY 10004,40.704813,-74.0121932,"{lng=-74.0121932, lat=40.704813}",$5.00 
DESI DELI PUNJABI DHABA 724 10 AVENUE New York NY 10019,40.7686973,-73.9918181,"{lng=-73.9918181, lat=40.7686973}",$5.25 
EL BARRIO JUICE BAR DELI 308 EAST 116 STREET New York NY 10029,40.7916407,-73.9447994,"{lng=-73.9447994, lat=40.79164069999999}",$3.75 
BLUE CAFE/3 IN 1 DELI RESTAURANT 50 HOYT STREET New York NY 11201,40.689211,-73.986272,"{lng=-73.986272, lat=40.689211}",$5.00 
NEW YORK DELI 21-09 BORDEN AVENUE New York NY 11101,40.7405534,-73.9492057,"{lng=-73.9492057, lat=40.7405534}",$4.25 
STADIUM DELI 127-01 34 AVENUE New York NY 11368,40.7506343,-73.8477874,"{lng=-73.8477874, lat=40.7506343}",$3.00 
FATHER & SON DELI 2511 30 AVENUE New York NY 11102,40.7732937,-73.9286341,"{lng=-73.9286341, lat=40.7732937}",$5.00 
J & JOE DELI & GROCERY 82-39 164 STREET New York NY 11432,40.7154518,-73.7919103,"{lng=-73.7919103, lat=40.7154518}",$5.25 
NEW DREAM DELI 27-51 JACKSON AVENUE New York NY 11101,40.748406,-73.939639,"{lng=-73.939639, lat=40.748406}",$3.50 
BINGO DELI 77 PEARL STREET New York NY 10004,40.7040805,-74.0105051,"{lng=-74.0105051, lat=40.7040805}",$6.25 
SHANGRI-LA DELI 228 FORT WASHINGTON AVENUE New York NY 10032,40.8429611,-73.9419678,"{lng=-73.9419678, lat=40.8429611}",$4.00 
MD BAGELS DELI & GROCEERY 434 CASTLETON AVENUE New York NY 10301,40.6337599,-74.0971352,"{lng=-74.0971352, lat=40.6337599}",$6.75 
GARDENIA GROCERY & DELI 404 8 AVENUE New York NY 10001,40.7536854,-73.9991637,"{lng=-73.9991637, lat=40.75368539999999}",$6.50 
BLACKSMITH CAFE & DELICATESSEN 20 WEST 37 STREET New York NY 10018,40.755322,-73.9932872,"{lng=-73.9932872, lat=40.755322}",$6.75 
PARK DELI 209 NASSAU AVENUE New York NY 11222,40.725813,-73.9442933,"{lng=-73.9442933, lat=40.725813}",$6.75 
DELI & GRILL 5001 4 AVENUE New York NY 11220,40.6385229,-74.0153231,"{lng=-74.0153231, lat=40.6385229}",$5.00 
HUNTER DELI 966 LEXINGTON AVENUE New York NY 10021,40.7694587,-73.963198,"{lng=-73.96319799999999, lat=40.7694587}",$4.25 
658 KINGS DELI 658 NEW DORP LANE New York NY 10306,40.566305,-74.101954,"{lng=-74.10195399999999, lat=40.566305}",$3.75 
STAGE STAR DELI 105 WEST 55 STREET New York NY 10019,40.7686973,-73.9918181,"{lng=-73.9918181, lat=40.7686973}",$5.50 
H.J.M. DELI 1380 BRONX RIVER AVE New York NY 10472,40.8335401,-73.879941,"{lng=-73.879941, lat=40.8335401}",$6.00 
LA ESPERANZA MEXICAN DELI GROCERY & VEGETABLES 2029 GRAND CONCOURSE New York NY 10453,40.8521811,-73.9044626,"{lng=-73.9044626, lat=40.8521811}",$3.00 
KENNEDY DELI 157-05 ROCKAWAY BOULEVARD New York NY 11434,40.666296,-73.779062,"{lng=-73.779062, lat=40.666296}",$6.25 
MOON PALACE DELI 496 ATLANTIC AVENUE New York NY 11217,40.685484,-73.981917,"{lng=-73.981917, lat=40.685484}",$5.75 
NEALTICAN DELI ANTOJITOS MEXICANOS 1225 FLUSHING AVENUE New York NY 11237,40.707988,-73.923703,"{lng=-73.923703, lat=40.707988}",$4.75 
SUSHI DELIGHT 157 HESTER STREET New York NY 10013,40.71745,-73.9959961,"{lng=-73.9959961, lat=40.71745}",$3.50 
JOHAL DELI 945 COLUMBUS AVENUE New York NY 10025,40.7994054,-73.9623643,"{lng=-73.96236429999999, lat=40.7994054}",$5.25 
BUNNY DELI 1522 ST NICHOLAS AVENUE New York NY 10033,40.8524539,-73.9312305,"{lng=-73.9312305, lat=40.8524539}",$4.00 
NEW SIDE STREET DELI 187 STATE STREET New York NY 11201,40.6903491,-73.9916463,"{lng=-73.9916463, lat=40.6903491}",$3.50 
MEI SIN DELI & GROCERY 3712 ALLEN STREET New York NY 10002,40.7187283,-73.9907748,"{lng=-73.9907748, lat=40.7187283}",$5.75 
OAXACA DELI AND TAQUERIA 1240 CASTLETON AVENUE New York NY 10310,40.6339957,-74.1238579,"{lng=-74.1238579, lat=40.6339957}",$3.25 
HEALTHY CHOICE DELI AND 341 7 AVENUE New York NY 11215,40.6681669,-73.9800645,"{lng=-73.9800645, lat=40.6681669}",$3.50 
DELICIOSO RESTAURANT 423 EAST 149 STREET New York NY 10455,40.8147803,-73.9080581,"{lng=-73.90805809999999, lat=40.8147803}",$4.75 
LA BAGEL DELIGHT 284 7 AVENUE New York NY 11215,40.6681669,-73.9800645,"{lng=-73.9800645, lat=40.6681669}",$5.25 
DELICIAS MEXICANAS 2109 3 AVENUE New York NY 10029,40.7916407,-73.9447994,"{lng=-73.9447994, lat=40.79164069999999}",$5.25 
DELICIA DONA MARIA RESTAURANT 88-09 JAMAICA AVENUE New York NY 11421,40.692918,-73.856145,"{lng=-73.856145, lat=40.692918}",$3.25 
NO HO JUICE BAR & DELI 208 MERCER STREET New York NY 10012,40.7266024,-73.996582,"{lng=-73.996582, lat=40.7266024}",$6.00 
MI BELLA PIAXTLA DELI & GROCERY 1904 BATH AVENUE New York NY 11214,40.602358,-74.003804,"{lng=-74.003804, lat=40.602358}",$5.50 
BOMBAY DELI PIZZA & TANDOORI RESTAURANT 367 WEST 36 STREET New York NY 10018,40.755322,-73.9932872,"{lng=-73.9932872, lat=40.755322}",$6.25 
1694 GOURMET DELI & GRILL 1694 PARK AVENUE New York NY 10035,40.8013042,-73.9422367,"{lng=-73.9422367, lat=40.8013042}",$3.50 
BLOOMS DELICATESSEN AND RESTAURANT 124 EAST 40 STREET New York NY 10016,40.74727,-73.9800645,"{lng=-73.9800645, lat=40.74727}",$3.00 
PAPA JOHN'S DELI 325 CITY ISLAND AVENUE New York NY 10464,40.847642,-73.786942,"{lng=-73.786942, lat=40.847642}",$6.00 
URIS DELI (URIS HALL) MAIN CAMPUS 411 WEST 116 STREET New York NY 10027,40.8138912,-73.9624327,"{lng=-73.96243270000001, lat=40.8138912}",$5.75 
TINOS DELICATESSEN 2410 ARTHUR AVENUE New York NY 10458,40.8557998,-73.8870496,"{lng=-73.8870496, lat=40.8557998}",$3.00 
ALNOOR HALAL DELI 672 4 AVENUE New York NY 11232,40.6560436,-74.0079781,"{lng=-74.0079781, lat=40.6560436}",$3.50 
E Z DELI 1625 BROADWAY New York NY 10019,40.7612696,-73.984413,"{lng=-73.984413, lat=40.7612696}",$4.00 
LAS DELICIAS PERUANAS RESTAURANT 4307 104 STREET New York NY 11368,40.747651,-73.860238,"{lng=-73.860238, lat=40.747651}",$3.75 
MARIO'S DELI 262 NASSAU AVENUE New York NY 11222,40.725754,-73.940556,"{lng=-73.940556, lat=40.72575399999999}",$3.00 
QUICK STOP DELI 68-06 ROOSEVELT AVENUE New York NY 11377,40.746078,-73.896914,"{lng=-73.896914, lat=40.746078}",$6.25 
GARDEN CITY DELI 607 9 AVENUE New York NY 10036,40.7602619,-73.9932872,"{lng=-73.9932872, lat=40.7602619}",$5.25 
IMPRESS DELI 401 EAST 34 STREET New York NY 10016,40.74727,-73.9800645,"{lng=-73.9800645, lat=40.74727}",$6.50 
OTHELLO DELI 2619 24 AVENUE New York NY 11102,40.774172,-73.9176905,"{lng=-73.91769049999999, lat=40.77417200000001}",$3.50 
DELISSIMO DELI & CAFE 39 EAST 60 STREET New York NY 10022,40.7593941,-73.9697795,"{lng=-73.9697795, lat=40.7593941}",$6.00 
DEAR & DELICIOUS 1466 MANOR ROAD New York NY 10314,40.594799,-74.1263681,"{lng=-74.1263681, lat=40.59479899999999}",$5.25 
CASTILLO DE JAGUA DELI RESTAURANT 6811 4 AVENUE New York NY 11220,40.6385229,-74.0153231,"{lng=-74.0153231, lat=40.6385229}",$3.50 
K & Y DELI & GROCERIES 152-09 ROCKAWAY BOULEVARD New York NY 11434,40.6719807,-73.7846584,"{lng=-73.7846584, lat=40.6719807}",$5.75 
MEZA PASTA & DELI 6410 NEW UTRECHT AVENUE New York NY 11219,40.624361,-73.997834,"{lng=-73.997834, lat=40.624361}",$4.00 
L'AROMA DELI CAFE 62-54 FOREST AVENUE New York NY 11385,40.711782,-73.905862,"{lng=-73.905862, lat=40.711782}",$6.50 
DELICATESSEN MACBAR 54 PRINCE ST New York NY 10012,40.72346,-73.9963118,"{lng=-73.9963118, lat=40.72346}",$5.25 
F & J DELICATESSEN DELIGHTS 768 CASTLE HILL AVE New York NY 10473,40.8226303,-73.8488519,"{lng=-73.8488519, lat=40.82263030000001}",$3.50 
FRANHILL DELI 204-17A HILLSIDE AVENUE New York NY 11423,40.7204137,-73.760982,"{lng=-73.760982, lat=40.72041369999999}",$6.00 
TRINI DELIGHT 110-02 LIBERTY AVENUE New York NY 11419,40.68415,-73.83189,"{lng=-73.83189, lat=40.68415}",$6.50 
CHRIST COFFEE SHOP & DELI 500 WEST 168 STREET New York NY 10032,40.8409822,-73.9447994,"{lng=-73.9447994, lat=40.8409822}",$3.75 
JJ DELI 36-19 REVIEW AVENUE New York NY 11101,40.7341074,-73.9373579,"{lng=-73.9373579, lat=40.7341074}",$6.50 
ZEREGA AVENUE DELI 1130 ZEREGA AVENUE New York NY 10462,40.831605,-73.8442309,"{lng=-73.8442309, lat=40.831605}",$3.00 
MR PANCHO TACO DELI 2871 WEBSTER AVENUE New York NY 10458,40.8672371,-73.8839853,"{lng=-73.88398529999999, lat=40.8672371}",$3.25 
876 MARKET DELI 876 6 AVENUE New York NY 10001,40.7536854,-73.9991637,"{lng=-73.9991637, lat=40.75368539999999}",$3.25 
MI CASA DELI 73-16 ROOSEVELT AVENUE New York NY 11372,40.746661,-73.891737,"{lng=-73.89173699999999, lat=40.746661}",$3.25 
ANGELA'S ROCK AND ROLL DELI 1428 6 AVENUE New York NY 10019,40.7686973,-73.9918181,"{lng=-73.9918181, lat=40.7686973}",$4.75 
GMC TEMAXCAL DELI & GROCERY 163 PARK AVENUE New York NY 11205,40.6964204,-73.9729553,"{lng=-73.9729553, lat=40.6964204}",$3.75 
ROGER DELI HOUSE 1490 MADISON AVENUE New York NY 10029,40.7913659,-73.951553,"{lng=-73.95155299999999, lat=40.7913659}",$6.50 
ANGELOS DELI RESTAURANT 5000 GRAND AVENUE New York NY 11378,40.7173058,-73.9182471,"{lng=-73.9182471, lat=40.7173058}",$3.75 
GRILL'S DELIGHT & JUICE BAR 587 5 AVENUE New York NY 11215,40.6681669,-73.9800645,"{lng=-73.9800645, lat=40.6681669}",$3.00 
LITTLE ANTHONYS DELI & PIZZA 150-19 LIBERTY AVENUE New York NY 11433,40.6985699,-73.801808,"{lng=-73.801808, lat=40.6985699}",$6.00 
ARTIE'S DELICATESSEN 2290 BROADWAY New York NY 10024,40.7860365,-73.9779008,"{lng=-73.9779008, lat=40.7860365}",$3.25 
LA BAGEL DELIGHT 73 LAFAYETTE AVENUE New York NY 11217,40.6873122,-73.9753652,"{lng=-73.9753652, lat=40.6873122}",$3.50 
DAVID'S BRISKET HOUSE DELI 533 NOSTRAND AVENUE New York NY 11216,40.679125,-73.9494477,"{lng=-73.9494477, lat=40.679125}",$3.00 
JOHN'S FAMOUS DELI 15 INNIS STREET New York NY 10302,40.6337522,-74.1417893,"{lng=-74.1417893, lat=40.6337522}",$5.50 
BALILO DELI 837 11 AVENUE New York NY 10019,40.7686973,-73.9918181,"{lng=-73.9918181, lat=40.7686973}",$3.00 
TEHUITZINGO DELI AND GROCERY 695 10 AVENUE New York NY 10036,40.7602619,-73.9932872,"{lng=-73.9932872, lat=40.7602619}",$4.00 
C & C DELI COFFEE SHOP & PASTRY 2438 EASTCHESTER ROAD New York NY 10469,40.862251,-73.842851,"{lng=-73.842851, lat=40.86225100000001}",$6.00 
THE NEW STAR DELI 1377 MADISON STREET New York NY 11237,40.6973424,-73.9111368,"{lng=-73.9111368, lat=40.6973424}",$6.25 
MENDY'S KOSHER DELICATESSEN 875 3 AVENUE New York NY 10022,40.7593941,-73.9697795,"{lng=-73.9697795, lat=40.7593941}",$3.00 
ARIANA DELI 32 NEW DORP PLAZA New York NY 10306,40.5737309,-74.1163596,"{lng=-74.1163596, lat=40.5737309}",$4.25 
JR GOURMET DELI & PRODUCE 2045 BARTOW AVENUE New York NY 10475,40.8695221,-73.8287875,"{lng=-73.82878749999999, lat=40.8695221}",$3.25 
ELIM DELI CAFE 851 LEXINGTON AVENUE New York NY 10065,40.765549,-73.965446,"{lng=-73.965446, lat=40.765549}",$6.50 
DELICIA BAKERY 2785 3 AVENUE New York NY 10455,40.8147803,-73.9080581,"{lng=-73.90805809999999, lat=40.8147803}",$5.50 
LA BAGEL DELIGHT 104 FRONT STREET New York NY 11201,40.702338,-73.9887298,"{lng=-73.9887298, lat=40.702338}",$3.00 
HOT BAGELS & DELI 108 MONTAGUE STREET New York NY 11201,40.6948103,-73.9952234,"{lng=-73.9952234, lat=40.6948103}",$5.50 
MAJESTIC DELICATESSEN CAFE 200 WEST 50 STREET New York NY 10019,40.7686973,-73.9918181,"{lng=-73.9918181, lat=40.7686973}",$5.00 
CHOLULITA DELI & RESTAURANT 888 BROADWAY New York NY 11206,40.6981051,-73.9372759,"{lng=-73.9372759, lat=40.6981051}",$3.50 
DELIMARIE 106 DUANE STREET New York NY 10007,40.7153459,-74.006413,"{lng=-74.006413, lat=40.7153459}",$3.25 
DELICIOUS BAKERY 139 HESTER ST New York NY 10002,40.7170523,-73.9947718,"{lng=-73.9947718, lat=40.7170523}",$6.50 
NY GOURMET DELI 680 8 AVENUE New York NY 10036,40.7602619,-73.9932872,"{lng=-73.9932872, lat=40.7602619}",$3.75 
A&E TENOCHTITLAN DELI & TAQUERIA 2445 CRESTON AVENUE New York NY 10468,40.8616336,-73.8989026,"{lng=-73.8989026, lat=40.8616336}",$4.50 
RASPBERRY DELI & GROCERY 2127 2 AVENUE New York NY 10029,40.7916407,-73.9447994,"{lng=-73.9447994, lat=40.79164069999999}",$6.75 
MI PEQUENA CHOLULA DELI RESTAURANTE 1481 MYRTLE AVENUE New York NY 11237,40.699188,-73.916501,"{lng=-73.916501, lat=40.699188}",$4.75 
BEST DELI 4106 2 AVENUE New York NY 11232,40.6560436,-74.0079781,"{lng=-74.0079781, lat=40.6560436}",$5.00 
TNT BAKERS DELIGHT RESTAURANT 872 NOSTRAND AVENUE New York NY 11225,40.668298,-73.9509379,"{lng=-73.9509379, lat=40.668298}",$3.75 
ZEMA DELI/GROCERY 54-33 MYRTLE AVENUE New York NY 11385,40.6996937,-73.9100989,"{lng=-73.9100989, lat=40.6996937}",$4.75 
GOLDEN LION GOURMET DELI 135-20 JAMAICA AVENUE New York NY 11418,40.702252,-73.816882,"{lng=-73.816882, lat=40.70225200000001}",$3.50 
COURTHOUSE DELI 88-40 SUTPHIN BOULEVARD New York NY 11435,40.7039695,-73.80888,"{lng=-73.80888, lat=40.7039695}",$4.25 
NEW DELICIOUS WOK 59-52 SUMMERFIELD STREET New York NY 11385,40.700315,-73.896694,"{lng=-73.896694, lat=40.700315}",$3.50 
ESSEN DELI 1359 CONEY ISLAND AVENUE New York NY 11230,40.624387,-73.964727,"{lng=-73.964727, lat=40.624387}",$3.25 
BLUE & GOLD DELI 510 EAST 62 STREET New York NY 10065,40.7645239,-73.9624327,"{lng=-73.96243270000001, lat=40.7645239}",$3.50 
CHINA DELIGHT 9902 37 AVENUE New York NY 11368,40.7506343,-73.8477874,"{lng=-73.8477874, lat=40.7506343}",$5.75 
DELI & COFFEE CORP. BREAKFAST & LUNCH 89-49 165 STREET New York NY 11432,40.7154518,-73.7919103,"{lng=-73.7919103, lat=40.7154518}",$5.75 
EVERYDAY GOURMET DELI 369 LEXINGTON AVENUE New York NY 10017,40.7504546,-73.9769739,"{lng=-73.97697389999999, lat=40.7504546}",$4.00 
GEORGE'S SIDESTREET DELI & GRILL 150-59 34 AVENUE New York NY 11354,40.7699016,-73.8272029,"{lng=-73.8272029, lat=40.7699016}",$3.50 
CLASSIC DELI 2655 RICHMOND AVENUE New York NY 10314,40.5816978,-74.1661941,"{lng=-74.1661941, lat=40.5816978}",$3.00 
FRESH N DELISH 1167 2 AVENUE New York NY 10065,40.7645239,-73.9624327,"{lng=-73.96243270000001, lat=40.7645239}",$3.50 
ANTOJITOS DELI FOOD 1936 86 STREET New York NY 11214,40.6042332,-74.0025999,"{lng=-74.00259989999999, lat=40.6042332}",$3.00 
ATLIXCO BAKERY & DELI 1012 ST PAULS AVE New York NY 10301,40.635287,-74.0783029,"{lng=-74.0783029, lat=40.635287}",$4.75 
BUDDY'S KOSHER DELI 215-01 73 AVENUE New York NY 11364,40.7469886,-73.7536695,"{lng=-73.7536695, lat=40.7469886}",$6.25 
NEW MIDFIELD DELI 6378 AMBOY ROAD New York NY 10309,40.522266,-74.216489,"{lng=-74.216489, lat=40.52226599999999}",$3.75 
ROCKAWAY PLAZA DELI 160-43 ROCKAWAY BOULEVARD New York NY 11434,40.6635078,-73.7771542,"{lng=-73.7771542, lat=40.6635078}",$6.25 
M&R DELI & COFFEE SHOP 1480 WILLIAMSBRIDGE ROAD New York NY 10461,40.844184,-73.845479,"{lng=-73.845479, lat=40.844184}",$3.50 
EL NUEVO DELICIOSO RESTAURANT 410 EAST 148 STREET New York NY 10455,40.8147803,-73.9080581,"{lng=-73.90805809999999, lat=40.8147803}",$5.50 
CHICKEN DELICATESSEN 43 EAST 28 STREET New York NY 10016,40.74727,-73.9800645,"{lng=-73.9800645, lat=40.74727}",$6.25 
2ND AVENUE DELI 1442 1 AVENUE New York NY 10021,40.7700703,-73.9580246,"{lng=-73.9580246, lat=40.7700703}",$4.00 
STAGE DELI 110-00 ROCKAWAY BOULEVARD New York NY 11420,40.6729864,-73.8328389,"{lng=-73.8328389, lat=40.6729864}",$5.50 
CHELSEA DELI & PIZZA 301 10 AVENUE New York NY 10001,40.7536854,-73.9991637,"{lng=-73.9991637, lat=40.75368539999999}",$4.25 
EIGHTEEN RESTAURANT DELICATESSEN AND GRILE 240 EAST 81 STREET New York NY 10028,40.7766412,-73.9521468,"{lng=-73.9521468, lat=40.77664120000001}",$5.50 
AVENUE Z DELI & PIZZA 603 AVENUE Z New York NY 11223,40.5860873,-73.9716026,"{lng=-73.9716026, lat=40.5860873}",$6.50 
LLOYD & JAY'S KOSHER DELI 2718 AVENUE U New York NY 11229,40.6011738,-73.9347623,"{lng=-73.9347623, lat=40.6011738}",$6.00 
ISLAND DELIGHT JERK & SEAFOOD CUISINE 205-20 JAMAICA AVENUE New York NY 11423,40.713498,-73.754234,"{lng=-73.75423400000001, lat=40.713498}",$5.50 
TAQUERIA JUAREZ DELI GROCERY & RESTAURANT 91-09 43 AVENUE New York NY 11373,40.737975,-73.8801301,"{lng=-73.8801301, lat=40.737975}",$6.00 
388 CAFE & DELI 13 ELDRIDGE STREET New York NY 10002,40.714851,-73.993937,"{lng=-73.993937, lat=40.714851}",$4.50 
CONNIE'S DELI 240 EAST 204 STREET New York NY 10458,40.8621792,-73.88601,"{lng=-73.88601, lat=40.8621792}",$3.25 
DELICIAS CALENAS #2 35-68 73 STREET New York NY 11372,40.7527924,-73.8801301,"{lng=-73.8801301, lat=40.7527924}",$6.50 
HAPPY DELI PLUS 33-09 COLLEGE POINT BOULEVARD New York NY 11354,40.765304,-73.8365929,"{lng=-73.8365929, lat=40.765304}",$4.50 
FIRST STOP DELI CORP 406 AVENUE M New York NY 11230,40.616583,-73.97109,"{lng=-73.97108999999999, lat=40.616583}",$3.50 
LA CUEVA DELI & GROCERY 47-18 JUNCTION BOULEVARD New York NY 11368,40.7420137,-73.8674975,"{lng=-73.8674975, lat=40.7420137}",$6.25 
DELIOS PIZZA 553 WEST 207 STREET New York NY 10034,40.8721452,-73.9212858,"{lng=-73.92128579999999, lat=40.8721452}",$3.25 
LA NUEVA ESTRELLA PIZZA AND DELI GROCERY 219 WEST 230 STREET New York NY 10463,40.8803247,-73.9095279,"{lng=-73.9095279, lat=40.8803247}",$5.25 
SUPREME DELI 82-65 PARSONS BOULEVARD New York NY 11432,40.716551,-73.807605,"{lng=-73.807605, lat=40.716551}",$6.50 
CITI BAGEL & DELI 6372 AMBOY ROAD New York NY 10309,40.522497,-74.2163939,"{lng=-74.21639390000001, lat=40.522497}",$4.75 
SIMPLY CHICKEN & CARNEGIE DELI 4 PENNSYLVANIA PLAZA New York NY 10001,40.7508707,-73.9942661,"{lng=-73.99426609999999, lat=40.7508707}",$5.75 
DELI PLANT MILK STORE 57-54 MASPETH AVENUE New York NY 11378,40.723014,-73.912644,"{lng=-73.912644, lat=40.723014}",$6.00 
DELICIOUS ON LYDIG 746 LYDIG AVENUE New York NY 10462,40.8544483,-73.865898,"{lng=-73.865898, lat=40.8544483}",$5.00 
MEERA DELI Nov-57 44 DRIVE New York NY 11101,40.7443091,-73.9418603,"{lng=-73.9418603, lat=40.7443091}",$3.25 
LIA COFFEE SHOP AND DELI 1176 GARRISON AVENUE New York NY 10474,40.8205255,-73.8880176,"{lng=-73.88801760000001, lat=40.8205255}",$3.75 
JOSHUE Deli & Juice Bar 173 WEST BURNSIDE AVENUE New York NY 10453,40.8539844,-73.9146457,"{lng=-73.91464570000001, lat=40.8539844}",$5.50 
ANGELOS PIZZA & DELI 3219 GREENPOINT AVENUE New York NY 11101,40.735424,-73.935705,"{lng=-73.935705, lat=40.73542399999999}",$6.00 
CAFE MADELINE 1603 CORTELYOU ROAD New York NY 11226,40.641881,-73.96339,"{lng=-73.96338999999999, lat=40.641881}",$3.75 
RICHMOND BAGEL & GOURMET DELI 4244 HYLAN BOULEVARD New York NY 10312,40.536415,-74.151024,"{lng=-74.15102399999999, lat=40.536415}",$6.50 
PK DELICATESSEN 149-34 GUY R BREWER BOULEVARD New York NY 11434,40.657108,-73.7677549,"{lng=-73.7677549, lat=40.657108}",$5.50 
LA CANTINELLA PIZZA & DELI 19-46 37 STREET New York NY 11105,40.7787902,-73.9065883,"{lng=-73.9065883, lat=40.7787902}",$6.50 
SUPERKING GOURMET DELI 3214 3 AVENUE New York NY 10451,40.8187386,-73.9271644,"{lng=-73.9271644, lat=40.8187386}",$6.25 
SONNY'S GOURMET DELI 4553 ARTHUR KILL ROAD New York NY 10309,40.5319271,-74.2391023,"{lng=-74.2391023, lat=40.5319271}",$3.25 
DOUBLE DELIGHT CHINESE RESTAURANT 7802 17 AVENUE New York NY 11214,40.6042332,-74.0025999,"{lng=-74.00259989999999, lat=40.6042332}",$4.75 
SIDELINES LUNCHEONETTE 1932 STILLWELL AVENUE New York NY 11223,40.5995539,-73.9858167,"{lng=-73.9858167, lat=40.5995539}",$3.25 
TORI'S FAMOUS SAUCES DELI & RESTAURANT 6002 FOSTER AVENUE New York NY 11236,40.640231,-73.918947,"{lng=-73.918947, lat=40.640231}",$3.50 
TASTE DELI AND GRILL 107-02 101 AVENUE New York NY 11416,40.6853768,-73.8492576,"{lng=-73.8492576, lat=40.6853768}",$3.00 
Ferrara's Deli & Grill 184 MASPETH AVENUE New York NY 11211,40.716826,-73.935255,"{lng=-73.935255, lat=40.716826}",$4.00 
JOE'S PIZZERIA RESTAURANT & DELI 6116 FLUSHING AVENUE New York NY 11378,40.7212065,-73.9033673,"{lng=-73.9033673, lat=40.7212065}",$5.25 
CROSS BAY DELI & GRILL 105-10 CROSSBAY BOULEVARD New York NY 11417,40.7048296,-73.8160989,"{lng=-73.8160989, lat=40.7048296}",$3.25 
MIKE'S DELI 321 WEST 42 STREET New York NY 10036,40.7602619,-73.9932872,"{lng=-73.9932872, lat=40.7602619}",$5.00 
2 PALMITAS MEXICAN DELI 10915 JAMAICA AVENUE New York NY 11418,40.7022714,-73.8194861,"{lng=-73.81948609999999, lat=40.7022714}",$4.75 
LOS POBLANITOS DELI GROCERY GRILL 10261 JAMAICA AVENUE New York NY 11418,40.7022719,-73.8194823,"{lng=-73.81948229999999, lat=40.7022719}",$6.25 
PANDA DELIGHT INC CHINESE RESTAURANT 121 SMITH STREET New York NY 11201,40.687601,-73.9896,"{lng=-73.9896, lat=40.687601}",$5.00 
JOHN'S CAFE DELI 1962 FLUSHING AVENUE New York NY 11385,40.712993,-73.916502,"{lng=-73.916502, lat=40.712993}",$3.25 
BENY'S DELICE 567 VANDERBILT AVENUE New York NY 11238,40.680689,-73.967446,"{lng=-73.967446, lat=40.680689}",$5.25 
AGAVE DELI GROCERY 252 KINGS HIGHWAY New York NY 11223,40.605064,-73.9813829,"{lng=-73.9813829, lat=40.605064}",$3.50 
DOSA DELIGHT 35-66 73 STREET New York NY 11372,40.7527924,-73.8801301,"{lng=-73.8801301, lat=40.7527924}",$6.75 
DOMAND DELICATESSAN 1301 CASTLE HILL AVE New York NY 10462,40.83451,-73.852254,"{lng=-73.852254, lat=40.83451}",$5.75 
DELICIOUS FRUITS 1820 GRAND CONCOURSE New York NY 10457,40.847254,-73.90754,"{lng=-73.90754, lat=40.847254}",$4.75 
CHINESE DELIGHT LUCKY COMING 2387 WASHINGTON AVENUE New York NY 10458,40.8575054,-73.8914452,"{lng=-73.89144519999999, lat=40.8575054}",$3.75 
DELI DOROJ FRIED CHICKEN AND PIZZA 2637 86 STREET New York NY 11223,40.6009233,-73.977126,"{lng=-73.977126, lat=40.6009233}",$5.00 
MARCO POLO PIZZA & DELI 1289 MADISON AVENUE New York NY 10128,40.7843827,-73.9559444,"{lng=-73.95594439999999, lat=40.78438269999999}",$3.00 
DELICIOUS JUICE BAR 832 WESTCHESTER AVENUE New York NY 10455,40.8191659,-73.9022782,"{lng=-73.9022782, lat=40.8191659}",$6.50 
FRESH DELIGHT 1 RICHMOND TERRACE New York NY 10301,40.6457369,-74.073156,"{lng=-74.073156, lat=40.6457369}",$3.00 
DELICIAS PIZZA AND CHICKEN 141-20 HOLLY AVENUE New York NY 11355,40.751569,-73.817238,"{lng=-73.817238, lat=40.751569}",$5.50 
374 DELI 374 8 AVNUE New York NY 10001,40.7536854,-73.9991637,"{lng=-73.9991637, lat=40.75368539999999}",$3.00 
ADELINA'S 159 GREENPOINT AVENUE New York NY 11222,40.7304565,-73.9534064,"{lng=-73.95340639999999, lat=40.7304565}",$5.00 
H I T DELI 150 WEST 28 STREET New York NY 10001,40.7536854,-73.9991637,"{lng=-73.9991637, lat=40.75368539999999}",$6.25 
DANNY & ANDY DELI 233 SCHERMERHORN STREET New York NY 11201,40.6886584,-73.9845664,"{lng=-73.98456639999999, lat=40.6886584}",$6.00 
EL JACAL MEXICANO DELI 182-11A JAMAICA AVENUE New York NY 11423,40.708853,-73.7786057,"{lng=-73.7786057, lat=40.708853}",$6.00 
SUNSET DELI & GRILL 5423 5 AVENUE New York NY 11220,40.6385229,-74.0153231,"{lng=-74.0153231, lat=40.6385229}",$4.75 
LA BAGEL DELIGHT 122 7 AVENUE New York NY 11215,40.6681669,-73.9800645,"{lng=-73.9800645, lat=40.6681669}",$4.75 
SAHER GOURMET DELI & GROCERY 88-20 VAN WYCK EXPRESSWAY New York NY 11418,40.701606,-73.816681,"{lng=-73.816681, lat=40.70160600000001}",$3.50 
BEST DELI 147-45 182 STREET New York NY 11413,40.6679426,-73.7536695,"{lng=-73.7536695, lat=40.6679426}",$4.50 
ALEX CAFE & DELI 1018 LEXINGTON AVENUE New York NY 10021,40.771032,-73.962076,"{lng=-73.962076, lat=40.771032}",$5.25 
696 GOURMET DELI 696 3 AVENUE New York NY 10017,40.7519846,-73.9697795,"{lng=-73.9697795, lat=40.7519846}",$6.00 
ACE HOT BAGEL & DELI 253-05 NORTHERN BOULEVARD New York NY 11362,40.7689482,-73.7368389,"{lng=-73.73683890000001, lat=40.7689482}",$5.25 
REDWOOD DELI 11818 QUEENS BOULEVARD New York NY 11375,40.714413,-73.83207,"{lng=-73.83207, lat=40.714413}",$5.75 
HARLEM DELIGHT 52 EAST 125 STREET New York NY 10035,40.794065,-73.9271644,"{lng=-73.9271644, lat=40.794065}",$4.00 
THE PASTELILLOS HOUSE & DELI 613 EAST 138 STREET New York NY 10454,40.8022594,-73.9154069,"{lng=-73.9154069, lat=40.8022594}",$3.50 
SPARTA DELI AND RESTUARANT 31-46 GREENPOINT AVENUE New York NY 11101,40.734715,-73.936289,"{lng=-73.936289, lat=40.734715}",$6.50 
AIR BAR/ NY DELI/ TIM HORTONS 9340 SUTPHIN BOULEVARD New York NY 11435,40.7004278,-73.8076792,"{lng=-73.8076792, lat=40.7004278}",$3.25 
TULCIMEX DELI RESTAURANT 2559 BOSTON ROAD New York NY 10467,40.8647293,-73.8636097,"{lng=-73.8636097, lat=40.8647293}",$6.00 
THIRD AVE CAR WASH & DELICATESSEN 3455 3 AVENUE New York NY 10456,40.8310224,-73.9095279,"{lng=-73.9095279, lat=40.83102239999999}",$3.75 
PALMA TACOS DELI 142 AVENUE U New York NY 11223,40.596087,-73.979035,"{lng=-73.979035, lat=40.596087}",$5.00 
2058 DELI AND GROCERY 2058 LEXINGTON AVENUE New York NY 10035,40.8042647,-73.9377535,"{lng=-73.9377535, lat=40.8042647}",$5.00 
MADISON DELI 420 MADISON AVENUE New York NY 10017,40.7570304,-73.976501,"{lng=-73.976501, lat=40.7570304}",$3.00 
Tony's Deli Grocery 70-68 KISSENA BOULEVARD New York NY 11367,40.7300427,-73.815368,"{lng=-73.81536799999999, lat=40.7300427}",$5.75 
GINA'S PIZZAERIA/ DELI 3905 5 AVENUE New York NY 11232,40.6560436,-74.0079781,"{lng=-74.0079781, lat=40.6560436}",$4.50 
NOT GUILTY DELICATESSEN 19 HYATT STREET New York NY 10301,40.6420199,-74.0773161,"{lng=-74.07731609999999, lat=40.6420199}",$4.75 
LAS NUEVAS DELICIAS DE ACAPULCO. 76-15 JAMAICA AVENUE New York NY 11421,40.6926818,-73.8567053,"{lng=-73.8567053, lat=40.6926818}",$6.50 
SERGIO'S PIZZA & DELI 48-03 DITMARS BOULEVARD New York NY 11105,40.769349,-73.900712,"{lng=-73.900712, lat=40.769349}",$3.75 
DELISH BY AMERIVENTS 4701 111 STREET New York NY 11368,40.7506343,-73.8477874,"{lng=-73.8477874, lat=40.7506343}",$6.25 
GEORGE'S DELI 53-05A 65 PLACE New York NY 11378,40.7224092,-73.9095279,"{lng=-73.9095279, lat=40.7224092}",$4.75 
DELI EL BIGOTES 3 EAST 31 STREET New York NY 11226,40.6470923,-73.9536163,"{lng=-73.9536163, lat=40.6470923}",$5.50 
REGGAE SUN DELIGHTS A NATURAL JUICE BAR 227229 WEST 145 STREET New York NY 10039,40.8288377,-73.9374517,"{lng=-73.9374517, lat=40.8288377}",$6.00 
PRONTO DELI 5203 METROPOLITAN AVENUE New York NY 11385,40.7128071,-73.9033761,"{lng=-73.9033761, lat=40.7128071}",$4.00 
HUNTS POINT JUICE BAR & DELI 620 MANIDA STREET New York NY 10474,40.8122455,-73.8875399,"{lng=-73.8875399, lat=40.8122455}",$3.25 
CAFE MAX & DELI 165-20 ARCHER AVENUE New York NY 11433,40.704094,-73.792957,"{lng=-73.792957, lat=40.704094}",$4.75 
"CALIENTITO DELI, RESTAURANT & LOUNGE BAR 141 LINCOLN AVENUE New York NY 10454",40.6867827,-73.8700462,"{lng=-73.8700462, lat=40.68678269999999}",$3.25 
ROMA DELI 76-14 21 AVENUE New York NY 11370,40.7594109,-73.8918897,"{lng=-73.8918897, lat=40.7594109}",$4.75 
PARSONS DELI & GROCERY 155-27 JAMAICA AVENUE New York NY 11432,40.7050092,-73.7960789,"{lng=-73.7960789, lat=40.7050092}",$6.75 
NEW SAM'S DELI 30 MULBERRY STREET New York NY 10013,40.7145532,-73.9995201,"{lng=-73.9995201, lat=40.7145532}",$4.00 
TASTY DELI 4020 BROADWAY New York NY 10032,40.8416522,-73.9388945,"{lng=-73.9388945, lat=40.8416522}",$5.50 
GRACE & SUNG 7 STARS DELI 57 FRONT STREET New York NY 11201,40.7026834,-73.991288,"{lng=-73.991288, lat=40.7026834}",$4.75 
BACK TO JOHN'S DELI 423 3 AVENUE New York NY 11215,40.6681669,-73.9800645,"{lng=-73.9800645, lat=40.6681669}",$6.00 
D'ANNA'S DELI & PIZZERIA 169-08 CROCHERON AVENUE New York NY 11358,40.762531,-73.7967199,"{lng=-73.7967199, lat=40.762531}",$6.75 
AMALI DELI INC 1569 BRONXDALE AVENUE New York NY 10462,40.8430375,-73.8558999,"{lng=-73.8558999, lat=40.8430375}",$4.75 
J G DELI GROCERY 645 2 AVENUE New York NY 10016,40.74727,-73.9800645,"{lng=-73.9800645, lat=40.74727}",$3.50 
MERIT DELI RESTAURANT 32-02 37 AVENUE New York NY 11101,40.7443091,-73.9418603,"{lng=-73.9418603, lat=40.7443091}",$3.25 
DELICIAS BAKERY 215 EAST 167 STREET New York NY 10456,40.8310224,-73.9095279,"{lng=-73.9095279, lat=40.83102239999999}",$6.50 
DE DELI 696 CONEY ISLAND AVE New York NY 11218,40.6405079,-73.969487,"{lng=-73.969487, lat=40.6405079}",$5.50 
Caribbean Jerkee's Delight 932 UTICA AVENUE New York NY 11203,40.650339,-73.9305849,"{lng=-73.93058490000001, lat=40.650339}",$3.75 
NOUVEAU DELIGHTS RESTAURANT 1368 FLATBUSH AVENUE New York NY 11210,40.636818,-73.952388,"{lng=-73.952388, lat=40.636818}",$3.75 
PD GROCERY & DELI 201-01 LINDEN BOULEVARD New York NY 11412,40.694972,-73.751253,"{lng=-73.75125299999999, lat=40.694972}",$3.25 
OLYMPIA STAR DELI 761 AVENUE OF THE AMERICAS New York NY 10010,40.7443235,-73.9917802,"{lng=-73.9917802, lat=40.7443235}",$5.50 
LAS MARGARITAS DELI GROCERY 1738 BATH AVENUE New York NY 11214,40.604355,-74.007446,"{lng=-74.007446, lat=40.604355}",$5.00 
DELI & GROCERY 666 6 AVENUE New York NY 10010,40.7388319,-73.9815337,"{lng=-73.98153370000001, lat=40.7388319}",$5.00 
HEALTHDELICIOUS 1964 86 STREET New York NY 11214,40.6042332,-74.0025999,"{lng=-74.00259989999999, lat=40.6042332}",$3.00 
DELICIAS AMBATENAS 68-24 ROOSEVELT AVENUE New York NY 11377,40.7453694,-73.9058951,"{lng=-73.9058951, lat=40.7453694}",$4.50 
416 NEW BRIGHTON DELI 416A JERSEY STREET New York NY 10301,40.638141,-74.087926,"{lng=-74.087926, lat=40.638141}",$5.75 
STILLWELL DELI 1579 STILLWELL AVENUE New York NY 10461,40.8549125,-73.8417718,"{lng=-73.8417718, lat=40.8549125}",$6.25 
DELIS 48 48 WEST 48 STREET New York NY 10036,40.7602619,-73.9932872,"{lng=-73.9932872, lat=40.7602619}",$5.50 
INTERSTATE 495 DELI 183-01 HORACE HARDING EXPRESSWAY New York NY 11365,40.74012,-73.791185,"{lng=-73.791185, lat=40.74012}",$4.00 
B&W DELI GROCERY 373 west 34th st New York NY 10001,40.7533322,-73.9961309,"{lng=-73.9961309, lat=40.7533322}",$4.00 
VICTOR'S COFFEE SHOP DELI & RESTAURANT 125-12 ROCKAWAY BOULEVARD New York NY 11420,40.675042,-73.812224,"{lng=-73.812224, lat=40.675042}",$5.50 
DELIZIA 92 1762 2 AVENUE New York NY 10128,40.7826039,-73.9506774,"{lng=-73.9506774, lat=40.7826039}",$6.75 
SANTA ANA DELI & GROCERY 171 IRVING AVENUE New York NY 11237,40.702365,-73.919742,"{lng=-73.919742, lat=40.702365}",$6.50 
ARIANA DELI 7311 AMBOY ROAD New York NY 10307,40.511494,-74.2412493,"{lng=-74.24124929999999, lat=40.511494}",$3.25 
GEMELLI ITALIAN DELI 133-11 CROSSBAY BOULEVARD New York NY 11417,40.7048296,-73.8160989,"{lng=-73.8160989, lat=40.7048296}",$3.25 
K N MI DELICIA BAKERY COFFEE SHOP II CORP 936 MORRIS AVENUE New York NY 10456,40.8273664,-73.9172021,"{lng=-73.9172021, lat=40.8273664}",$4.00 
BIG APPLE RESTAURANT DELI CAFE 1567A PITKIN AVENUE New York NY 11212,40.6689674,-73.9155736,"{lng=-73.9155736, lat=40.6689674}",$6.75 
CONTINENTAL DELI 47-08 48 STREET New York NY 11377,40.7413334,-73.9036487,"{lng=-73.90364869999999, lat=40.74133339999999}",$6.25 
Leo's Deli Grill 604 EAST 102 STREET New York NY 11236,40.6387196,-73.8948295,"{lng=-73.8948295, lat=40.63871959999999}",$6.50 
DHAKA DELI 136 EAST 28 STREET New York NY 10016,40.74727,-73.9800645,"{lng=-73.9800645, lat=40.74727}",$5.00 
BUSY CORNER DELI 345 FLUSHING AVENUE New York NY 11205,40.6983456,-73.9617513,"{lng=-73.9617513, lat=40.6983456}",$5.75 
J & C DELICIAS 37-61 79 STREET New York NY 11372,40.7527924,-73.8801301,"{lng=-73.8801301, lat=40.7527924}",$5.25 
SUPER TIGER DELI 47-01 FRANCIS LEWIS BOULEVARD New York NY 11361,40.753102,-73.779954,"{lng=-73.779954, lat=40.753102}",$5.00 
Delilah's Steaks 55 MCGUINNESS BLVD S New York NY 11222,40.7213819,-73.9458269,"{lng=-73.9458269, lat=40.7213819}",$5.50 
CHERRY VALLEY DELI 29-Dec 150 STREET New York NY 11357,40.7850656,-73.8124984,"{lng=-73.8124984, lat=40.7850656}",$5.50 
395 EAST 149TH DELI GROCERY 395 EAST 149 STREET New York NY 10455,40.8147803,-73.9080581,"{lng=-73.90805809999999, lat=40.8147803}",$4.75 
AL-ARAF HALAL FRIED CHICKEN AND FROZEN DELIGHTS 76-03 37 AVENUE New York NY 11372,40.7527924,-73.8801301,"{lng=-73.8801301, lat=40.7527924}",$6.00 
SUSHI AND DELI BOX 68 WEST 39 STREET New York NY 10018,40.755322,-73.9932872,"{lng=-73.9932872, lat=40.755322}",$4.25 
A&J GROCERY & DELI 106 DEKALB AVENUE New York NY 11201,40.6896451,-73.9784447,"{lng=-73.9784447, lat=40.6896451}",$5.00 
MIKROM DELI RESTAURANT CORP 10013 FOSTER AVENUE New York NY 11236,40.650258,-73.903184,"{lng=-73.90318400000001, lat=40.650258}",$4.00 
Max's Deli 2623 ATLANTIC AVENUE New York NY 11207,40.67594,-73.897615,"{lng=-73.897615, lat=40.67594}",$4.25 
SZECHUAN DELIGHT 709 86 STREET New York NY 11228,40.6137658,-74.0153231,"{lng=-74.0153231, lat=40.6137658}",$6.75 
J & LEE'S DELI 214 EAST 188 STREET New York NY 10458,40.8621792,-73.88601,"{lng=-73.88601, lat=40.8621792}",$5.00 
CARNEGIE DELI EAST 4 PENNSYLVANIA PLAZA New York NY 10001,40.7508707,-73.9942661,"{lng=-73.99426609999999, lat=40.7508707}",$6.50 
YUMMY CHINESE DELICACY 1717 CORNELIA STREET New York NY 11385,40.7003481,-73.9054698,"{lng=-73.90546979999999, lat=40.7003481}",$4.50 
NEW YORK NICK'S DELI 1019 MCDONALD AVENUE New York NY 11230,40.6290173,-73.976952,"{lng=-73.976952, lat=40.6290173}",$4.75 
GREENPOINT DELI 31-24 GREENPOINT AVENUE New York NY 11101,40.7345147,-73.9370597,"{lng=-73.93705969999999, lat=40.7345147}",$3.25 
MARIO GOURMET DELI 934 AMSTERDAM AVENUE New York NY 10025,40.8003949,-73.9660208,"{lng=-73.9660208, lat=40.8003949}",$4.00 
MORELOS BAKERY & DELI 6802 20 AVENUE New York NY 11204,40.6195067,-73.9859414,"{lng=-73.9859414, lat=40.6195067}",$4.50 
CLOISTERS DELI 7 HENSHAW ST New York NY 10034,40.8667648,-73.9300771,"{lng=-73.93007709999999, lat=40.8667648}",$3.50 
Jimmy Deli Grill 2254 EAST TREMONT AVENUE New York NY 10462,40.8421523,-73.855619,"{lng=-73.85561899999999, lat=40.8421523}",$5.00 
JOHN'S DELI 2438 STILLWELL AVENUE New York NY 11223,40.5878885,-73.9839082,"{lng=-73.9839082, lat=40.5878885}",$4.50 
C & C ITALIAN DELI 14919 CENTERVILLE STREET New York NY 11417,40.670626,-73.8383048,"{lng=-73.8383048, lat=40.670626}",$3.50 
BOCBOC CHICKEN DELICIOUS 9015 QUEENS BOULEVARD New York NY 11373,40.7342757,-73.8706606,"{lng=-73.8706606, lat=40.7342757}",$6.50 
JOHN'S DELI 173 NEW DORP LANE New York NY 10306,40.5734939,-74.114895,"{lng=-74.11489499999999, lat=40.5734939}",$5.75 
BING DELI GROCERY 1415 GRAVESEND NECK ROAD New York NY 11229,40.59496,-73.956072,"{lng=-73.95607199999999, lat=40.59496}",$6.25 
MY CITY DELI 8449 164TH ST New York NY 11432,40.7115177,-73.8006796,"{lng=-73.80067960000001, lat=40.7115177}",$3.75 
ALTON'S PIZZA & DELI 73-18 NORTHERN BOULEVARD New York NY 11372,40.7546431,-73.8935344,"{lng=-73.8935344, lat=40.7546431}",$5.50 
GOOD VIEW DELICIOUS BAKERY 4518 8 AVENUE New York NY 11220,40.6385229,-74.0153231,"{lng=-74.0153231, lat=40.6385229}",$5.00 
RAE'S DELI 26 WEST 33 STREET New York NY 10001,40.7536854,-73.9991637,"{lng=-73.9991637, lat=40.75368539999999}",$4.00 
COLUMBUS DELICATESSEN 6610 18 AVENUE New York NY 11204,40.6195067,-73.9859414,"{lng=-73.9859414, lat=40.6195067}",$6.75 
LA ADELITA MEXICAN RESTAURANT 5222 ROOSEVELT AVENUE New York NY 11377,40.7442131,-73.911656,"{lng=-73.911656, lat=40.7442131}",$5.00 
BM DELI & GROCERY 1916 3 AVENUE New York NY 10029,40.7916407,-73.9447994,"{lng=-73.9447994, lat=40.79164069999999}",$4.00 
LUNCH BOX DELI 13308 35TH AVE New York NY 11354,40.7638069,-73.8345111,"{lng=-73.8345111, lat=40.7638069}",$4.50 
HOMEFRONT DELI 41 EAST 41 STREET New York NY 10017,40.7519846,-73.9697795,"{lng=-73.9697795, lat=40.7519846}",$6.50 
FRESCO DELI CORP 3306 QUEENS BOULEVARD New York NY 11101,40.7443264,-73.931445,"{lng=-73.931445, lat=40.7443264}",$3.25 
ANDY'S DELI 291 BROADWAY New York NY 10007,40.7149312,-74.0059932,"{lng=-74.00599319999999, lat=40.7149312}",$5.00 
CHINA DELIGHT 4009 5 AVENUE New York NY 11232,40.6560436,-74.0079781,"{lng=-74.0079781, lat=40.6560436}",$5.00 
DAVID'S K DELI 620 ATLANTIC AVENUE New York NY 11217,40.6831182,-73.9752303,"{lng=-73.97523029999999, lat=40.6831182}",$5.00 
Q AND N DELI FOOD 23059 INTL AIRPORT CENTER BLVD New York NY 11413,40.7424947,-73.9599073,"{lng=-73.9599073, lat=40.74249469999999}",$5.00 
REGO PARK DELI & PASTRY 9734 63 ROAD New York NY 11374,40.7255722,-73.8624893,"{lng=-73.8624893, lat=40.72557219999999}",$4.50 
IMPERIAL RESTAURANT DELI 2456 WILLIAMSBRIDGE ROAD New York NY 10469,40.8621296,-73.8576958,"{lng=-73.8576958, lat=40.8621296}",$4.50 
DELICIAS BAKERY & RESTAURANT 103-07 ROOSEVELT AVENUE New York NY 11368,40.7499163,-73.8624952,"{lng=-73.8624952, lat=40.7499163}",$5.75 
HILLSIDE DELICATESSEN AND CATERERS 241-06 HILLSIDE AVENUE New York NY 11426,40.7340603,-73.7235156,"{lng=-73.7235156, lat=40.7340603}",$4.75 
EL AZTECA RINCON DELI 47-16 GREENPOINT AVENUE New York NY 11104,40.742454,-73.917269,"{lng=-73.917269, lat=40.742454}",$5.50 
CHARLEY DELI AND KITCHEN 145-27 228 STREET New York NY 11413,40.6679426,-73.7536695,"{lng=-73.7536695, lat=40.6679426}",$6.00 
CRISTINA DELI 1237 150TH ST New York NY 11357,40.7898638,-73.8141923,"{lng=-73.8141923, lat=40.7898638}",$5.50 
COFFEE SHOP DELI 79-25 COOPER AVENUE New York NY 11385,40.7084143,-73.8720248,"{lng=-73.87202479999999, lat=40.7084143}",$6.00 
HOT & CRUSTY BAKERDELI 1201 2 AVENUE New York NY 10065,40.7645239,-73.9624327,"{lng=-73.96243270000001, lat=40.7645239}",$4.00 
CARIBBEAN DELI CUISINE 14-46 COLLEGE POINT BOULEVARD New York NY 11356,40.7846918,-73.8459935,"{lng=-73.84599349999999, lat=40.7846918}",$6.25 
FlOR DELICIA RESTAURANT 807 HUNTS POINT AVENUE New York NY 10474,40.8171134,-73.8883175,"{lng=-73.8883175, lat=40.8171134}",$3.00 
DELICIOUS PLACE 67-06 FRESH POND ROAD New York NY 11385,40.7055988,-73.8968224,"{lng=-73.89682239999999, lat=40.7055988}",$3.50 
809 PERFECT DELI. 62-05 30 AVENUE New York NY 11377,40.7413334,-73.9036487,"{lng=-73.90364869999999, lat=40.74133339999999}",$3.50 
DELI PIZZA PIZZERIA & TAQUERIA 70-20 35 AVENUE New York NY 11372,40.7527924,-73.8801301,"{lng=-73.8801301, lat=40.7527924}",$4.50 
BALLI DELI & SALAD BAR 2616 OCEAN PARKWAY New York NY 11235,40.586171,-73.96687,"{lng=-73.96687, lat=40.586171}",$3.25 
MARINA GOURMET DELI. 246 EAST 23 STREET New York NY 10010,40.7388319,-73.9815337,"{lng=-73.98153370000001, lat=40.7388319}",$3.75 
LA DELICIA EN PAN DE BONO 2 64-03 ROOSEVELT AVENUE New York NY 11377,40.7461355,-73.8997672,"{lng=-73.8997672, lat=40.7461355}",$6.75 
Q TRAIN DELI 1825 CHURCH AVENUE New York NY 11226,40.649923,-73.962418,"{lng=-73.962418, lat=40.649923}",$5.50 
WALTERS DELI 70-11 GRAND AVENUE New York NY 11378,40.727796,-73.89279,"{lng=-73.89279, lat=40.727796}",$4.75 
LAS DELICIAS 217-19 JAMAICA AVENUE New York NY 11428,40.71813,-73.737306,"{lng=-73.73730599999999, lat=40.71813}",$4.75 
EL BLOQUE DELI 132-07 JAMAICA AVENUE New York NY 11418,40.7021956,-73.8200554,"{lng=-73.8200554, lat=40.7021956}",$3.00 
TASTY DELICIOUS WEST INDIAN BAKERY & RESTAURANT 1397 ROCKAWAY PARKWAY New York NY 11236,40.6458011,-73.9028605,"{lng=-73.9028605, lat=40.6458011}",$3.00 
PERALTA'S DELI & GRILL 144 NEPTUNE AVENUE New York NY 11235,40.5821385,-73.9590144,"{lng=-73.9590144, lat=40.58213850000001}",$5.25 
DAD DELI & CAFE 59-24 KISSENA BOULEVARD New York NY 11355,40.740155,-73.815447,"{lng=-73.81544699999999, lat=40.740155}",$6.75 
JOHN'S DELI 2033 STILLWELL AVENUE New York NY 11223,40.5971199,-73.984982,"{lng=-73.984982, lat=40.5971199}",$3.50 
DMV Deli Express 1332 COMMERCE AVENUE New York NY 10461,40.836262,-73.8401027,"{lng=-73.8401027, lat=40.836262}",$4.75 
ROSEDALE DELICATESSEN 243-04 MERRICK BOULEVARD New York NY 11422,40.67372,-73.730564,"{lng=-73.730564, lat=40.67372}",$6.50 
STIFF WEASEL GRILL + DELI 5993 BROADWAY New York NY 10463,40.8896066,-73.8983127,"{lng=-73.8983127, lat=40.8896066}",$4.75 
ROBERTS DELIGHT CARIBBEAN & AMERICAN RESTAURANT 13-30 BEACH CHANNEL DRIVE New York NY 11691,40.6061718,-73.7545604,"{lng=-73.7545604, lat=40.6061718}",$6.75 
ROCCO'S ITALIAN DELI 1323 RANDALL AVENUE New York NY 10474,40.812647,-73.884814,"{lng=-73.88481399999999, lat=40.812647}",$3.00 
DELICIAS COLOMBIANAS BAKERY 37-03 82 STREET New York NY 11372,40.7527924,-73.8801301,"{lng=-73.8801301, lat=40.7527924}",$4.50 
L.I.C. BROADWAY DELI & GROCERY CORP. 14-21 BROADWAY New York NY 11106,40.766139,-73.932716,"{lng=-73.932716, lat=40.766139}",$6.75 
EDDIE'S DELI & PIZZA LLC 184 EAST 116 STREET New York NY 10029,40.7916407,-73.9447994,"{lng=-73.9447994, lat=40.79164069999999}",$3.00 
BULLPEN DELI TWIN DONUTS 66 EAST 161 STREET New York NY 10451,40.8187386,-73.9271644,"{lng=-73.9271644, lat=40.8187386}",$3.75 
CHELSEA DELI AND BAKERY 254 8 AVENUE New York NY 10011,40.7464969,-74.0094471,"{lng=-74.0094471, lat=40.7464969}",$4.00 
G&B TERMINAL DELI BROOKLYN TERMINAL MARKET New York NY 11236,40.6387196,-73.8948295,"{lng=-73.8948295, lat=40.63871959999999}",$4.75 
H & R GOURMET DELI & GROCERY 1071 TARGEE STREET New York NY 10304,40.6017065,-74.0913781,"{lng=-74.0913781, lat=40.6017065}",$4.25 
BROADWAY GOURMET DELI & GRILL 691 BROADWAY New York NY 11206,40.701867,-73.943418,"{lng=-73.943418, lat=40.701867}",$6.00 
GRIDDLE CAFE DELI 30-18 HUNTERS POINT AVENUE New York NY 11101,40.7404694,-73.9376212,"{lng=-73.9376212, lat=40.7404694}",$6.75 
FRANK AND JOE'S DELI 3639 EAST TREMONT AVENUE New York NY 10465,40.8282122,-73.8238883,"{lng=-73.8238883, lat=40.8282122}",$3.25 
LAS DELICIAS DE LA CASA COLOMBIANA 9001 31 AVENUE New York NY 11369,40.7659246,-73.8683697,"{lng=-73.86836970000002, lat=40.7659246}",$4.00 
GEORGE'S DELI 53-05 65 PLACE New York NY 11378,40.7224092,-73.9095279,"{lng=-73.9095279, lat=40.7224092}",$3.50 
ANGELO'S DELI 69-45 51 AVENUE New York NY 11377,40.7413334,-73.9036487,"{lng=-73.90364869999999, lat=40.74133339999999}",$3.25 
810 DELI & CAFE 810 7 AVENUE New York NY 10019,40.7686973,-73.9918181,"{lng=-73.9918181, lat=40.7686973}",$3.50 
ROOSEVELT GOURMET DELI 460 WEST 57 STREET New York NY 10019,40.7686973,-73.9918181,"{lng=-73.9918181, lat=40.7686973}",$5.25 
JALAPENO DELI 1629B LEXINGTON AVENUE New York NY 10029,40.790024,-73.9476907,"{lng=-73.9476907, lat=40.790024}",$5.50 
OZ DELI 2 WEST 32 STREET New York NY 10001,40.7536854,-73.9991637,"{lng=-73.9991637, lat=40.75368539999999}",$5.75 
NATURALLY DELICIOUS CATERERS 487 COURT STREET New York NY 11231,40.6761357,-73.9986575,"{lng=-73.9986575, lat=40.6761357}",$4.00 
LITTLE GUJRAT DELI 946 COLUMBUS AVENUE New York NY 10025,40.7997,-73.9629269,"{lng=-73.9629269, lat=40.7997}",$5.50 
MENDY'S KOSHER DELICATESSEN 10 ROCKERFELLER PLAZA New York NY 10020,40.761111,-73.9825,"{lng=-73.9825, lat=40.761111}",$5.00 
BENY'S DELICE GOURMENT SPECIALITIES 903 FULTON STREET New York NY 11238,40.6837203,-73.9672369,"{lng=-73.9672369, lat=40.6837203}",$6.25 
RIVER DELI 2834 COLUMBIA PLACE New York NY 11201,40.692337,-73.998988,"{lng=-73.998988, lat=40.692337}",$3.00 
DELICIAS CALENAS 95-41 ROOSEVELT AVENUE New York NY 11372,40.749246,-73.8703799,"{lng=-73.8703799, lat=40.749246}",$5.75 
PLAZA DELI 40 BARRETT AVE New York NY 10302,40.6259049,-74.136768,"{lng=-74.136768, lat=40.62590489999999}",$4.75 
TUSCANY DELI 82-41 153 AVENUE New York NY 11414,40.6616787,-73.8477874,"{lng=-73.8477874, lat=40.6616787}",$5.75 
FRESH CENTRAL GOURMET DELI 650 FIRST AVENUE New York NY 10016,40.7457608,-73.971586,"{lng=-73.971586, lat=40.7457608}",$4.25 
MING'S DELIGHT 594 3 AVENUE New York NY 10016,40.74727,-73.9800645,"{lng=-73.9800645, lat=40.74727}",$6.75 
TRINI DELITE ROTI SHOP 129-04 LIBERTY AVENUE New York NY 11419,40.6893355,-73.8161191,"{lng=-73.8161191, lat=40.6893355}",$6.75 
COURTLAND DELI & RESTAURANT 645 COURTLANDT AVENUE New York NY 10451,40.8189288,-73.918476,"{lng=-73.918476, lat=40.81892879999999}",$5.25 
DANNY'S DELI 224 WEST 47 STREET New York NY 10036,40.7602619,-73.9932872,"{lng=-73.9932872, lat=40.7602619}",$3.00 
MICHELY DELI 169 WEST TREMONT AVENUE New York NY 10453,40.851095,-73.9155679,"{lng=-73.9155679, lat=40.851095}",$3.75 
Tasty Delight Bakery 89 AVENUE O New York NY 11204,40.6106002,-73.981816,"{lng=-73.981816, lat=40.6106002}",$4.00 
SHAXIAN DELICACIES 811 49 STREET New York NY 11220,40.6385229,-74.0153231,"{lng=-74.0153231, lat=40.6385229}",$3.50 
ROCKAWAY DELI & RESTAURANT INC. 158-02 ROCKAWAY BOULEVARD New York NY 11434,40.6653776,-73.779082,"{lng=-73.779082, lat=40.6653776}",$6.75 
DELICI CORP 71 NASSAU STREET New York NY 10038,40.7096995,-74.0084243,"{lng=-74.0084243, lat=40.7096995}",$4.75 
LOS PRIMOS DELICATESSEN CORP. 236 PENNSYLVANIA AVENUE New York NY 11207,40.671957,-73.896267,"{lng=-73.896267, lat=40.671957}",$4.50 
STATUE OF LIBERTY DELI 5 FERRY TERMINAL DR New York NY 10301,40.6274394,-74.0946311,"{lng=-74.0946311, lat=40.6274394}",$4.00 
PATAL ASIA DELI GROCERY 135 EAST 28 STREET New York NY 10016,40.74727,-73.9800645,"{lng=-73.9800645, lat=40.74727}",$6.00 
DELICIOUS PLACE 614 MANHATTAN AVENUE New York NY 11222,40.734807,-73.9550123,"{lng=-73.95501229999999, lat=40.734807}",$3.25 
GOURMET STOP DELI 1132 TARGEE STREET New York NY 10304,40.6002834,-74.0917274,"{lng=-74.0917274, lat=40.6002834}",$4.25 
Mill Basin Kosher Deli 5823 AVENUE T New York NY 11234,40.6155739,-73.9180116,"{lng=-73.9180116, lat=40.6155739}",$4.25 
BUNNY DELI II INC 228 WEST 231 STREET New York NY 10463,40.8803247,-73.9095279,"{lng=-73.9095279, lat=40.8803247}",$3.00 
JOHN'S DELI HERO KING III CORP 7423 AMBOY ROAD New York NY 10307,40.510108,-74.244056,"{lng=-74.24405600000001, lat=40.510108}",$4.00 
La Lomita Mexican Deli Corp 3868 10 AVENUE New York NY 10034,40.8721452,-73.9212858,"{lng=-73.92128579999999, lat=40.8721452}",$3.25 
Big E's Deli 180 WEST SERVICE ROAD New York NY 10314,40.589174,-74.1942393,"{lng=-74.19423929999999, lat=40.589174}",$3.00 
W TOWN GROCERY & DELI 49-08 QUEENS BOULEVARD New York NY 11377,40.7425788,-73.9155732,"{lng=-73.91557320000001, lat=40.7425788}",$6.50 
A & J DELI FISH CORP 128 EAST 174 STREET New York NY 10457,40.8441387,-73.8977693,"{lng=-73.8977693, lat=40.84413869999999}",$5.75 
TINY DELICATESSEN 42 BROADWAY New York NY 10004,40.7060052,-74.0129259,"{lng=-74.0129259, lat=40.7060052}",$4.00 
NICKYS DELI & GRILL CORP 145-04 LIBERTY AVENUE New York NY 11435,40.693245,-73.807585,"{lng=-73.807585, lat=40.693245}",$6.00 
TOP ONE DELI CORP 834 OLMSTEAD AVENUE New York NY 10473,40.823855,-73.852028,"{lng=-73.85202799999999, lat=40.82385499999999}",$6.50 
"PERSONAL GOURMET DELI, LTD 2359 FLATBUSH AVE New York NY 11234",40.6128276,-73.9253799,"{lng=-73.9253799, lat=40.6128276}",$6.75 
PALACE DELI INC 307 WEST 38 STREET New York NY 10018,40.755322,-73.9932872,"{lng=-73.9932872, lat=40.755322}",$4.75 
LIC DELI GOURMET INC. 33-00 NORTHERN BOULEVARD New York NY 11101,40.7517377,-73.9315891,"{lng=-73.9315891, lat=40.7517377}",$5.25 
"GUERRERO'S GROCERY & DELI, CORP 809 AVENUE U New York NY 11223",40.598375,-73.962692,"{lng=-73.96269199999999, lat=40.598375}",$3.50 
BLEECKER DELI & GRILL INC 442 BLEECKER STREET New York NY 11237,40.7036512,-73.9124026,"{lng=-73.9124026, lat=40.7036512}",$3.75 
First choice deli & grocery 753 UNION AVENUE New York NY 10455,40.8178406,-73.903558,"{lng=-73.90355799999999, lat=40.8178406}",$4.25 
MOCA DELI GROCERY INC 4183 BROADWAY New York NY 10033,40.8477692,-73.9382147,"{lng=-73.9382147, lat=40.84776919999999}",$6.75 
Trini Delite Roti Shop 129-04 LIBERTY AVENUE New York NY 11419,40.6893355,-73.8161191,"{lng=-73.8161191, lat=40.6893355}",$5.75 
BEL PAESE ITALIAN DELI 459 LEXINGTON AVENUE New York NY 10017,40.7534139,-73.9743584,"{lng=-73.9743584, lat=40.7534139}",$5.00 
TAL BAGELS DELI 975-979 FIRST AVENUE New York NY 10022,40.7563113,-73.9646617,"{lng=-73.9646617, lat=40.7563113}",$5.75 
BEN ASH DELICATESSEN 855 7 AVENUE New York NY 10019,40.7686973,-73.9918181,"{lng=-73.9918181, lat=40.7686973}",$5.00 
CHAMP'S DELI 71 BROADWAY New York NY 10006,40.7076019,-74.0128495,"{lng=-74.0128495, lat=40.7076019}",$3.00 
STAGE DOOR DELI 26 VESEY STREET New York NY 10007,40.7121042,-74.0097128,"{lng=-74.0097128, lat=40.7121042}",$5.75 
SMILER'S DELI 532 MADISON AVENUE New York NY 10022,40.7605744,-73.9738917,"{lng=-73.9738917, lat=40.7605744}",$3.50 
GLORY DELI 4630 VERNON BOULEVARD New York NY 11101,40.746056,-73.953298,"{lng=-73.953298, lat=40.746056}",$4.25 
SZECHUAN DELIGHT RESTAURANT 152 7 AVENUE New York NY 11215,40.6681669,-73.9800645,"{lng=-73.9800645, lat=40.6681669}",$4.00 
HOME DELI & CATERING 71-35 73 PLACE New York NY 11385,40.6980708,-73.8948295,"{lng=-73.8948295, lat=40.6980708}",$3.75 
J AND L DELI 682 5 AVENUE New York NY 11215,40.6681669,-73.9800645,"{lng=-73.9800645, lat=40.6681669}",$4.00 
DELI PLUS ( INSIDE PORT AUTHORITY STATION) 625 8 AVENUE New York NY 10018,40.755322,-73.9932872,"{lng=-73.9932872, lat=40.755322}",$6.25 
CHARLE'S CORNER RESTAURANT & DELI 537 PARK AVENUE New York NY 11205,40.6971322,-73.9549067,"{lng=-73.9549067, lat=40.6971322}",$3.25 
SANDY'S DELI & ROTI 12110 LIBERTY AVENUE New York NY 11419,40.686825,-73.821939,"{lng=-73.821939, lat=40.686825}",$3.75 
CHICKEN DELICIOUS 286 KINGS HIGHWAY New York NY 11223,40.604918,-73.9798859,"{lng=-73.9798859, lat=40.604918}",$4.25 
PARIS GOURMET DELI 49-11 VERNON BOULEVARD New York NY 11101,40.7429739,-73.953694,"{lng=-73.953694, lat=40.7429739}",$4.00 
DON PEPIS DELICATESSEN 0 AMTRAK LEVEL New York NY 10001,40.7536854,-73.9991637,"{lng=-73.9991637, lat=40.75368539999999}",$5.00 
BEN'S KOSHER DELI & RESTAURANT 211-37 26 AVENUE New York NY 11360,40.7779482,-73.7801447,"{lng=-73.7801447, lat=40.7779482}",$6.75 
LA DELICE PASTRY SHOP 372 3 AVENUE New York NY 10016,40.74727,-73.9800645,"{lng=-73.9800645, lat=40.74727}",$5.00 
PIAXTLA ES MEXICO DELI 505 51 STREET New York NY 11220,40.6385229,-74.0153231,"{lng=-74.0153231, lat=40.6385229}",$3.75 
FOOD MART DELI 1321 YORK AVENUE New York NY 10021,40.7659558,-73.9544096,"{lng=-73.95440959999999, lat=40.7659558}",$6.75 
TREVI DELI 48 UNION SQUARE EAST New York NY 10003,40.736167,-73.9892148,"{lng=-73.9892148, lat=40.73616699999999}",$3.75 
CROWN GOURMET DELI 1674 BROADWAY New York NY 10019,40.7628094,-73.982872,"{lng=-73.982872, lat=40.76280939999999}",$6.00 
BAGELS & CREAM DELI 80-02 SURREY PLACE New York NY 11432,40.7262928,-73.7889465,"{lng=-73.7889465, lat=40.7262928}",$5.75 
BELLROSE DELI 247-73 JAMAICA AVENUE New York NY 11426,40.7240602,-73.7257541,"{lng=-73.7257541, lat=40.7240602}",$6.25 
BAGELS DELI 7039 PARSONS BOULEVARD New York NY 11365,40.7312772,-73.8107462,"{lng=-73.8107462, lat=40.7312772}",$6.25 
TIMMY'S DELI 11102 ROOSEVELT AVENUE New York NY 11368,40.751408,-73.855497,"{lng=-73.855497, lat=40.751408}",$4.25 
HELLO DELI 213 WEST 53 STREET New York NY 10019,40.7686973,-73.9918181,"{lng=-73.9918181, lat=40.7686973}",$5.25 
DI LUVIO'S DELI 3000 47 AVENUE New York NY 11101,40.7443091,-73.9418603,"{lng=-73.9418603, lat=40.7443091}",$6.00 
LITE DELIGHTS 51 EAST HOUSTON STREET New York NY 10012,40.7246247,-73.9945985,"{lng=-73.9945985, lat=40.7246247}",$5.00 
LA BAGEL DELIGHT 90 COURT STREET New York NY 11201,40.691189,-73.9918686,"{lng=-73.9918686, lat=40.691189}",$6.25 
HAMILTON DELI 1129 AMSTERDAM AVENUE New York NY 10025,40.8064211,-73.9609312,"{lng=-73.96093119999999, lat=40.8064211}",$4.75 
CAPRI IV DELI 2073 BARTOW AVE New York NY 10475,40.8695788,-73.8281765,"{lng=-73.8281765, lat=40.8695788}",$6.75 
AIRPORT DELI 84-20 ASTORIA BOULEVARD New York NY 11370,40.7644867,-73.8845333,"{lng=-73.8845333, lat=40.7644867}",$3.25 
LUCKY DELI 12 EAST 37 STREET New York NY 10016,40.74727,-73.9800645,"{lng=-73.9800645, lat=40.74727}",$3.75 
101 DELI 10016 ROCKAWAY BEACH BOULEVARD New York NY 11694,40.5838155,-73.8216636,"{lng=-73.8216636, lat=40.5838155}",$3.75 
WEST 53RD GOURMET DELI 1301 AVENUE OF THE AMERICAS New York NY 10019,40.7616971,-73.9801263,"{lng=-73.9801263, lat=40.7616971}",$4.50 
BAGEL DELI / VILLAGE GREEN DELI 262 N ARDEN AVE New York NY 10312,40.5523287,-74.1910312,"{lng=-74.1910312, lat=40.5523287}",$3.00 
PIZZA DELI PLUS 2436 STILLWELL AVENUE New York NY 11223,40.587915,-73.983965,"{lng=-73.983965, lat=40.587915}",$3.00 
TOWNE DELI & PIZZA 5373 ARTHUR KILL ROAD New York NY 10307,40.513571,-74.248143,"{lng=-74.248143, lat=40.513571}",$6.25 
CARNEGIE DELICATESSEN & RESTAURANT 854 7 AVENUE New York NY 10019,40.7686973,-73.9918181,"{lng=-73.9918181, lat=40.7686973}",$6.75 
SPEEDY DELI 1271 BROADWAY New York NY 10001,40.7482511,-73.9884413,"{lng=-73.98844129999999, lat=40.7482511}",$5.00 
BEN'S DELI 209 WEST 38 STREET New York NY 10018,40.755322,-73.9932872,"{lng=-73.9932872, lat=40.755322}",$5.75 
ACAPULCO DELI & RESTAURANT 1116 MANHATTAN AVE New York NY 11222,40.7367143,-73.9550847,"{lng=-73.9550847, lat=40.7367143}",$3.25 
MILLIE'S DELI 13-01 JACKSON AVENUE New York NY 11101,40.7442847,-73.9498136,"{lng=-73.9498136, lat=40.7442847}",$4.75 
FOOD FAIR DELI & PIZZA 433 WEST 34 STREET New York NY 10001,40.7536854,-73.9991637,"{lng=-73.9991637, lat=40.75368539999999}",$3.50 
GRAND STREET DELI & MINI MARKET 42 GRAND STREET New York NY 10013,40.7158082,-73.9656821,"{lng=-73.9656821, lat=40.7158082}",$6.75 
LANE DELI & CATERING 75 MAIDEN LANE New York NY 10038,40.7077614,-74.0075542,"{lng=-74.0075542, lat=40.7077614}",$3.00 
L & M ITALIAN DELI & CATERING 3608 31 STREET New York NY 11106,40.7595044,-73.9271644,"{lng=-73.9271644, lat=40.7595044}",$5.25 
MILLION DELI 1624 2 AVENUE New York NY 10028,40.7766412,-73.9521468,"{lng=-73.9521468, lat=40.77664120000001}",$6.50 
SCALINI FEDELI 165 DUANE STREET New York NY 10013,40.7174312,-74.009317,"{lng=-74.009317, lat=40.7174312}",$3.50 
3 DELI & GRILL 133 EAST 55 STREET New York NY 10022,40.7593941,-73.9697795,"{lng=-73.9697795, lat=40.7593941}",$6.00 
DELIGHT DONUT 66-91 FRESH POND ROAD New York NY 11385,40.7061804,-73.8967614,"{lng=-73.8967614, lat=40.7061804}",$6.25 
CONTINENTAL LUNCHEONETTE & DELI 104-03 METROPOLITAN AVENUE New York NY 11375,40.710323,-73.848705,"{lng=-73.848705, lat=40.710323}",$4.50 
BEST DELI CAFE 986 ATLANTIC AVENUE New York NY 11238,40.6802252,-73.9613869,"{lng=-73.9613869, lat=40.6802252}",$6.00 
HANSON GOURMET DELI & CAFE 17 HANSON PLACE New York NY 11217,40.6853237,-73.9776008,"{lng=-73.97760079999999, lat=40.6853237}",$5.25 
FRIENDS DELI 245-05 JAMAICA AVENUE New York NY 11426,40.7234013,-73.7275228,"{lng=-73.7275228, lat=40.7234013}",$4.75 
HIGHWAY DELI AND COFFEE SHOP 61-11 173 STREET New York NY 11365,40.7421943,-73.7889689,"{lng=-73.7889689, lat=40.7421943}",$6.00 
ONE DELI RESTAURANT 536 3 AVENUE New York NY 11215,40.6681669,-73.9800645,"{lng=-73.9800645, lat=40.6681669}",$3.75 
RALPH'S II DELI 200-01 32 AVENUE New York NY 11361,40.7622954,-73.7742616,"{lng=-73.7742616, lat=40.7622954}",$4.75 
CONSTANTINES DELI 20510 48 AVENUE New York NY 11364,40.7469886,-73.7536695,"{lng=-73.7536695, lat=40.7469886}",$5.50 
NEW ANDY'S DELI 873 BROADWAY New York NY 10003,40.7381889,-73.9903303,"{lng=-73.99033030000001, lat=40.7381889}",$6.75 
STROKOS GOURMET DELI 1090 AMSTERDAM AVE New York NY 10025,40.8055078,-73.9625202,"{lng=-73.9625202, lat=40.8055078}",$6.00 
PIZZA HUT DELIVERY 60-51 MYRTLE AVE New York NY 11385,40.700849,-73.896535,"{lng=-73.896535, lat=40.700849}",$4.25 
LAHORE DELICATESSEN 132 CROSBY STREET New York NY 10012,40.7250632,-73.9976946,"{lng=-73.9976946, lat=40.7250632}",$5.75 
STAR LITE DELI 212 WEST 44 STREET New York NY 10036,40.7602619,-73.9932872,"{lng=-73.9932872, lat=40.7602619}",$6.25 
DELIAS LOUNGE CAFE 9224 3 AVENUE New York NY 11209,40.6212119,-74.0329499,"{lng=-74.03294989999999, lat=40.6212119}",$4.25 
NATURALLY DELICIOUS 225 BROADWAY New York NY 10007,40.7119156,-74.0085295,"{lng=-74.0085295, lat=40.7119156}",$6.00 
UNITED GROCERY & DELI 177 HUDSON STREET New York NY 10013,40.722532,-74.008475,"{lng=-74.00847499999999, lat=40.722532}",$4.75 
TIMES DELI & CAFE 158 WEST 44 STREET New York NY 10036,40.7602619,-73.9932872,"{lng=-73.9932872, lat=40.7602619}",$3.00 
KATZ'S DELICATESSEN 205 EAST HOUSTON STREET New York NY 10002,40.7135097,-73.9859414,"{lng=-73.9859414, lat=40.7135097}",$6.00 
CITY ISLAND DELI 520 CITY ISLAND AVE New York NY 10464,40.852584,-73.789134,"{lng=-73.78913399999999, lat=40.852584}",$5.25 
S & T BAGELS & DELI 463 FOREST AVENUE New York NY 10301,40.6306891,-74.1048855,"{lng=-74.1048855, lat=40.6306891}",$5.25 
ALL AMERICAN DELI 42 WATER STREET New York NY 10004,40.703561,-74.010173,"{lng=-74.010173, lat=40.703561}",$6.00 
CHEITO DURAN DELI GROCERY 54-06 FLUSHING AVENUE New York NY 11378,40.714822,-73.913136,"{lng=-73.913136, lat=40.714822}",$4.25 
TOM'S DELICIOUS PIZZA 3161 BROADWAY New York NY 10027,40.8149183,-73.959383,"{lng=-73.959383, lat=40.8149183}",$4.50 
CAFE CELLO DELI 48 WEST 46 STREET New York NY 10036,40.7602619,-73.9932872,"{lng=-73.9932872, lat=40.7602619}",$3.00 
STROKOS PIZZA DELI 888 10 AVENUE New York NY 10019,40.7686973,-73.9918181,"{lng=-73.9918181, lat=40.7686973}",$4.75 
A & B DELI & CATERING 126-20 ROCKAWAY BOULEVARD New York NY 11420,40.674944,-73.810936,"{lng=-73.810936, lat=40.674944}",$5.50 
CHEROKEE DELI 1626 BROADWAY New York NY 11207,40.684789,-73.914368,"{lng=-73.914368, lat=40.68478899999999}",$5.25 
HANOVER GOURMET DELI 3 HANOVER SQUARE New York NY 10004,40.7050324,-74.0097338,"{lng=-74.00973379999999, lat=40.7050324}",$6.25 
SCOTT'S FOOD & DELI 28 WEST 48 STREET New York NY 10036,40.7602619,-73.9932872,"{lng=-73.9932872, lat=40.7602619}",$6.50 
CAFE LA MORENA & DELI 950 3 AVENUE New York NY 11232,40.6560436,-74.0079781,"{lng=-74.0079781, lat=40.6560436}",$4.00 
BIG APPLE DELI 1190 6 AVENUE New York NY 10036,40.7602619,-73.9932872,"{lng=-73.9932872, lat=40.7602619}",$3.75 
HALLMARK DELI 455 NORTH END AVENUE New York NY 10282,40.717521,-74.014503,"{lng=-74.01450299999999, lat=40.717521}",$5.50 
CHINA DELIGHT 722 4 AVENUE New York NY 11232,40.6560436,-74.0079781,"{lng=-74.0079781, lat=40.6560436}",$3.50 
BOULEVARD DELI 3300 NORTHERN BOULEVARD New York NY 11101,40.7517377,-73.9315891,"{lng=-73.9315891, lat=40.7517377}",$3.50 
ROSARIO DELI 22-55 31 STREET New York NY 11105,40.7787902,-73.9065883,"{lng=-73.9065883, lat=40.7787902}",$3.00 
LIBERTY DELI 22 EAST 49 STREET New York NY 10017,40.7519846,-73.9697795,"{lng=-73.9697795, lat=40.7519846}",$5.50 
VISTA HERMOSA DELI RESTAURANT 1201 EVERGREEN AVENUE New York NY 10472,40.8287274,-73.8811705,"{lng=-73.8811705, lat=40.8287274}",$6.50 
POINT VIEW DELI 255 GREENPOINT AVENUE New York NY 11222,40.730884,-73.949413,"{lng=-73.949413, lat=40.730884}",$3.50 
SUNSET RIDGE DELI 5802 5 AVENUE New York NY 11220,40.6385229,-74.0153231,"{lng=-74.0153231, lat=40.6385229}",$5.25 
FORT WASHINGTON BAKERY AND DELI 808 WEST 181 STREET New York NY 10033,40.8508873,-73.9387032,"{lng=-73.93870319999999, lat=40.8508873}",$5.00 
K & H DELI 328 NASSAU AVENUE New York NY 11222,40.7261529,-73.936825,"{lng=-73.936825, lat=40.7261529}",$5.50 
FANCY FOOD DELI 55-14 37 AVENUE New York NY 11377,40.7413334,-73.9036487,"{lng=-73.90364869999999, lat=40.74133339999999}",$3.50 
TULCINGO DELI 111 40-10 JUNCTION BOULEVARD New York NY 11368,40.74885,-73.8692364,"{lng=-73.86923639999999, lat=40.74885}",$3.00 
JOHN'S DELI & GROCERY 6801 5 AVENUE New York NY 11220,40.6385229,-74.0153231,"{lng=-74.0153231, lat=40.6385229}",$5.25 
PLAN DE AYALA DELI-GROCERY 259-261 KINGS HIGHWAY New York NY 11223,40.605505,-73.980986,"{lng=-73.980986, lat=40.605505}",$3.25 
S.R. DELI GROCERY 91-14 43 AVENUE New York NY 11373,40.737975,-73.8801301,"{lng=-73.8801301, lat=40.737975}",$4.00 
ZOIE'S CAFE and DELICATESSEN 49 BEACH STREET New York NY 10013,40.720799,-74.0091255,"{lng=-74.0091255, lat=40.720799}",$4.00 
BROADWAY DELI & BAGEL'S 515 WEST 42 STREET New York NY 10036,40.7602619,-73.9932872,"{lng=-73.9932872, lat=40.7602619}",$6.50 
DELIZIA RISTORANTE 1374 1 AVENUE New York NY 10021,40.7700703,-73.9580246,"{lng=-73.9580246, lat=40.7700703}",$3.75 
GARIBALDI DELI RESTAURANT 100 CANAL STREET New York NY 10304,40.626335,-74.07684,"{lng=-74.07683999999999, lat=40.626335}",$5.25 
SHARAN DELI 314 WEST 39 STREET New York NY 10018,40.755322,-73.9932872,"{lng=-73.9932872, lat=40.755322}",$6.00 
CHRIS SUPER DELI 903 SHERIDAN AVENUE New York NY 10451,40.8270836,-73.9209911,"{lng=-73.9209911, lat=40.8270836}",$3.50 
"DELICIAS CUENCANAS BAR-RESTAURANT DELI, 41-07 99 STREET New York NY 11368",40.7506343,-73.8477874,"{lng=-73.8477874, lat=40.7506343}",$4.00 
BENATERI'S ITALIAN GOURMET DELI 129-21 14 AVENUE New York NY 11356,40.7901266,-73.8477874,"{lng=-73.8477874, lat=40.7901266}",$5.25 
STAR DELI 2718 PITKIN AVENUE New York NY 11208,40.675181,-73.871679,"{lng=-73.871679, lat=40.675181}",$6.75 
BEST OF THE BEST DELICATESSEN 11 PARK PLACE New York NY 10007,40.7130513,-74.0082933,"{lng=-74.00829329999999, lat=40.7130513}",$6.50 
BLINKS DELI 43-01 35 STREET New York NY 11101,40.7443091,-73.9418603,"{lng=-73.9418603, lat=40.7443091}",$6.50 
ONE WAY DELI 26 COURT STREET New York NY 11242,40.6932942,-73.9908107,"{lng=-73.9908107, lat=40.6932942}",$5.00 
SUNSET DELI 4301 4 AVENUE New York NY 11232,40.6560436,-74.0079781,"{lng=-74.0079781, lat=40.6560436}",$5.00 
Andrew & Frank's DELI 2802 23 AVENUE New York NY 11105,40.7787902,-73.9065883,"{lng=-73.9065883, lat=40.7787902}",$3.50 
J.L.H. DELI 307 WEST 38 STREET New York NY 10018,40.755322,-73.9932872,"{lng=-73.9932872, lat=40.755322}",$5.50 
LIEBMAN'S DELI 552 WEST 235 STREET New York NY 10463,40.8803247,-73.9095279,"{lng=-73.9095279, lat=40.8803247}",$5.25 
NEW UNIVERSITY DELI 603 WEST 168 STREET New York NY 10032,40.8409822,-73.9447994,"{lng=-73.9447994, lat=40.8409822}",$4.50 
COUSIN'S DELI RESTAURANT 4102 3 AVENUE New York NY 11232,40.6560436,-74.0079781,"{lng=-74.0079781, lat=40.6560436}",$4.75 
BUTCHER GOURMET DELI 4916 VERNON BOULEVARD New York NY 11101,40.7430108,-73.9542333,"{lng=-73.9542333, lat=40.7430108}",$4.75 
VAN DAM DELI 52-50 VAN DAM STREET New York NY 11101,40.736041,-73.936713,"{lng=-73.936713, lat=40.736041}",$6.75 
LAS DELICIAS 18-01 COLLEGE POINT BOULEVARD New York NY 11356,40.783067,-73.84556,"{lng=-73.84555999999999, lat=40.783067}",$5.50 
MANHATTAN GOURMET DELI 1377 6 AVENUE New York NY 10019,40.7686973,-73.9918181,"{lng=-73.9918181, lat=40.7686973}",$4.25 
CAFE PLAZA DELI 11 BROADWAY New York NY 10004,40.7055269,-74.014346,"{lng=-74.014346, lat=40.7055269}",$5.50 
GO-GO'S DELI & CONVENIENCE 2218 HYLAN BOULEVARD New York NY 10306,40.576258,-74.103343,"{lng=-74.103343, lat=40.576258}",$6.75 
MEXICO LINDO Y ! Q RICO! DELI 497 CONEY ISLAND AVENUE New York NY 11218,40.6454012,-73.9705509,"{lng=-73.97055089999999, lat=40.64540119999999}",$5.25 
KITO DELI 41 WEST 33 STREET New York NY 10001,40.7536854,-73.9991637,"{lng=-73.9991637, lat=40.75368539999999}",$3.50 
ELLEN DELI & GROCERY 289 HUDSON STREET New York NY 10013,40.725708,-74.00781,"{lng=-74.00780999999999, lat=40.725708}",$5.75 
DOMINICAN FOOD R. A. DELI 2180 FOREST AVENUE New York NY 10303,40.6263419,-74.1622795,"{lng=-74.1622795, lat=40.6263419}",$4.25 
MEXICANA DELI GROCERY 339 EAST 204 STREET New York NY 10467,40.8723987,-73.8713099,"{lng=-73.8713099, lat=40.8723987}",$5.75 
BROOKLYN NATIONAL DELI JFK AIRPORT New York NY 11430,40.6413111,-73.7781391,"{lng=-73.77813909999999, lat=40.6413111}",$6.75 
EXPRESS PIZZA AND DELI 90-46 161 STREET New York NY 11432,40.7154518,-73.7919103,"{lng=-73.7919103, lat=40.7154518}",$5.25 
TASTY DELI 775 4 AVENUE New York NY 11232,40.6560436,-74.0079781,"{lng=-74.0079781, lat=40.6560436}",$4.25 
FIVE CORNERS DELI 25-53 18 STREET New York NY 11102,40.7732937,-73.9286341,"{lng=-73.9286341, lat=40.7732937}",$3.25 
SHAMAS DELI 150 WEST 38 STREET New York NY 10018,40.755322,-73.9932872,"{lng=-73.9932872, lat=40.755322}",$4.25 
DOUGLASTON DELICATESSEN 4423 DOUGLASTON PARKWAY New York NY 11363,40.765937,-73.744608,"{lng=-73.744608, lat=40.765937}",$4.00 
38 DELI 968 58 STREET New York NY 11219,40.6310753,-73.9976946,"{lng=-73.9976946, lat=40.6310753}",$5.50 
Tasty Delicious Bakery 1096 RUTLAND ROAD New York NY 11212,40.6643789,-73.923215,"{lng=-73.923215, lat=40.6643789}",$5.50 
DOMAND'S ITALIAN GOURMET DELI & CATERERS 3029 STRATTON ST New York NY 11354,40.7697083,-73.8346909,"{lng=-73.8346909, lat=40.7697083}",$4.25 
25TH DELI 4819 25 AVENUE New York NY 11103,40.7633726,-73.9109977,"{lng=-73.9109977, lat=40.7633726}",$3.00 
K&J PLAZA DELI & SALAD BAR 127 LIVINGSTON STREET New York NY 11201,40.6909916,-73.9886658,"{lng=-73.9886658, lat=40.6909916}",$4.25 
SOON DELI 9221 LIBERTY AVENUE New York NY 11417,40.68039,-73.846144,"{lng=-73.846144, lat=40.68039}",$5.50 
STOP DELI 43-01 31 AVENUE New York NY 11103,40.7633726,-73.9109977,"{lng=-73.9109977, lat=40.7633726}",$5.25 
NICK'S GOURMET DELI 74-15 DITMARS BOULEVARD New York NY 11370,40.768662,-73.894707,"{lng=-73.894707, lat=40.768662}",$4.00 
EL SOL DE MEXICO DELI GROCERY 95-09 SUTPHIN BOULEVARD New York NY 11435,40.7026151,-73.8082507,"{lng=-73.8082507, lat=40.7026151}",$5.00 
BROOK AVENUE DELI & PIZZA 348 BROOK AVENUE New York NY 10454,40.809948,-73.917464,"{lng=-73.917464, lat=40.809948}",$6.75 
HUNAN DELIGHT 752 UNION STREET New York NY 11215,40.6753277,-73.9781954,"{lng=-73.97819539999999, lat=40.6753277}",$4.75 
GREEN TEA DELI 28-18 41 AVENUE New York NY 11101,40.7443091,-73.9418603,"{lng=-73.9418603, lat=40.7443091}",$6.00 
LIBERTY DELI 30 ROCKEFELLER PLAZA New York NY 10112,40.7589426,-73.9793564,"{lng=-73.9793564, lat=40.7589426}",$4.00 
SPARKS DELI RESTAURANT 28-31 BORDEN AVENUE New York NY 11101,40.7389171,-73.9410364,"{lng=-73.9410364, lat=40.73891709999999}",$5.25 
HUNAN DELIGHT MATSUYA 1467 YORK AVENUE New York NY 10075,40.7707045,-73.9512757,"{lng=-73.9512757, lat=40.7707045}",$5.25 
NEW STAR COFFEE SHOP & DELI 3150 BAINBRIDGE AVENUE New York NY 10467,40.8749926,-73.879442,"{lng=-73.87944200000001, lat=40.8749926}",$5.75 
DELI EXPRESS 12605 36 AVENUE New York NY 11368,40.7506343,-73.8477874,"{lng=-73.8477874, lat=40.7506343}",$6.75 
STAR GOURMET DELI & PIZZA 797 6 AVENUE New York NY 10001,40.7536854,-73.9991637,"{lng=-73.9991637, lat=40.75368539999999}",$4.50 
ZANTE DELI RESTAURANT 30-17 39 AVENUE New York NY 11101,40.7443091,-73.9418603,"{lng=-73.9418603, lat=40.7443091}",$6.75 
DELICIOUS CHINESE 1584 ROCKAWAY PARKWAY New York NY 11236,40.6422404,-73.8991196,"{lng=-73.89911959999999, lat=40.6422404}",$5.00 
RUDY'S DELI RESTAURANT 54-30 48 STREET New York NY 11378,40.7224092,-73.9095279,"{lng=-73.9095279, lat=40.7224092}",$5.25 
CHINA DELIGHT RESTAURANT 218-82 HEMPSTEAD AVENUE New York NY 11429,40.712903,-73.735403,"{lng=-73.73540299999999, lat=40.712903}",$5.00 
LITTLE MICHAELS DELI AND SALD BAR 12 EAST GUN HILL ROAD New York NY 10467,40.8961855,-73.8411209,"{lng=-73.84112089999999, lat=40.8961855}",$6.75 
HIS DELI & CAFE 165-54 BAISLEY BOULEVARD New York NY 11434,40.6793722,-73.7777726,"{lng=-73.77777259999999, lat=40.6793722}",$5.25 
DELICIAS MANABITAS RESTAURANT 4205 35 AVENUE New York NY 11101,40.7443091,-73.9418603,"{lng=-73.9418603, lat=40.7443091}",$6.00 
CHOLULA DELI GROCERY 222 WYCKOFF AVENUE New York NY 11237,40.7009654,-73.9141319,"{lng=-73.9141319, lat=40.7009654}",$6.25 
NORTH VILLAGE DELI EMPORIUM 74 8 AVENUE New York NY 10011,40.7464969,-74.0094471,"{lng=-74.0094471, lat=40.7464969}",$4.00 
COLOMBUS AVE DELI & COFE 556 COLUMBUS AVENUE New York NY 10024,40.7871628,-73.9719684,"{lng=-73.9719684, lat=40.7871628}",$4.25 
TAZA CAFE AND DELI 350 PARK AVENUE SOUTH New York NY 10010,40.74182,-73.985529,"{lng=-73.985529, lat=40.74182}",$4.75 
PANADERIA LA MIXTECA POBLANA & DELI 104 VICTORY BOULEVARD New York NY 10301,40.637517,-74.0798,"{lng=-74.07979999999999, lat=40.637517}",$4.25 
CAFE BONJOUR DELI & PIZZA 18 WEST 38 STREET New York NY 10018,40.755322,-73.9932872,"{lng=-73.9932872, lat=40.755322}",$3.00 
FREDDY'S DELI 895 GRAND STREET New York NY 11211,40.712749,-73.938367,"{lng=-73.938367, lat=40.712749}",$4.75 
DOMINICKS DELI 1109 1 AVENUE New York NY 10065,40.7645239,-73.9624327,"{lng=-73.96243270000001, lat=40.7645239}",$5.50 
PUNJABI DELI & RESTAURANT 160-20 46 AVENUE New York NY 11358,40.760743,-73.7977928,"{lng=-73.7977928, lat=40.76074300000001}",$4.50 
SPARKY'S DELI 2828 COLLEGE POINT BOULEVARD New York NY 11354,40.7722223,-73.8448612,"{lng=-73.8448612, lat=40.7722223}",$3.50 
PLAZA DELI 127 JOHN STREET New York NY 10038,40.707361,-74.004762,"{lng=-74.004762, lat=40.707361}",$6.25 
TERRACE VIEW DELI 135 TERRACE VIEW AVENUE New York NY 10463,40.875991,-73.9132,"{lng=-73.9132, lat=40.875991}",$3.75 
DELIGHT 28 RESTAURANT 2830 PELL STREET New York NY 10013,40.7148064,-73.9980331,"{lng=-73.9980331, lat=40.7148064}",$4.50 
MAURICE AVENUE DELI 5904 55 DRIVE New York NY 11378,40.7224092,-73.9095279,"{lng=-73.9095279, lat=40.7224092}",$4.75 
2ND AVENUE DELI 162 EAST 33 STREET New York NY 10016,40.74727,-73.9800645,"{lng=-73.9800645, lat=40.74727}",$4.75 
HAPPY DELI 146-02 45 AVENUE New York NY 11355,40.7493096,-73.8213213,"{lng=-73.8213213, lat=40.7493096}",$5.00 
DELICIAS TROPICAL RESTAURANT 93-16 37 AVENUE New York NY 11372,40.7527924,-73.8801301,"{lng=-73.8801301, lat=40.7527924}",$5.25 
DELI MANJOO BAKERY 133-31 39 AVENUE New York NY 11354,40.7699016,-73.8272029,"{lng=-73.8272029, lat=40.7699016}",$5.50 
MASTER EXPRESS DELI & RESTAURANT 12696 WILLETS POINT BOULEVARD New York NY 11368,40.7578729,-73.841709,"{lng=-73.84170900000001, lat=40.7578729}",$6.00 
COURT DELI RESTAURANT 96 EAST 161 STREET New York NY 10451,40.8187386,-73.9271644,"{lng=-73.9271644, lat=40.8187386}",$4.25 
LAS CHATAS TAQUERIA & DELI GROCERY 599 EAST 184 STREET New York NY 10458,40.8621792,-73.88601,"{lng=-73.88601, lat=40.8621792}",$4.50 
JADESTONE PIZZERIA AND DELI 44574459 3 AVENUE New York NY 10457,40.8441387,-73.8977693,"{lng=-73.8977693, lat=40.84413869999999}",$5.50 
CIVIC DELI 111 WORTH STREET New York NY 10013,40.7160117,-74.0034906,"{lng=-74.00349059999999, lat=40.7160117}",$6.75 
AL'S DELI 458 7 AVENUE New York NY 10001,40.7536854,-73.9991637,"{lng=-73.9991637, lat=40.75368539999999}",$6.50 
TRADER'S EXPRESS DELI 22 BEAVER STREET New York NY 10004,40.704813,-74.0121932,"{lng=-74.0121932, lat=40.704813}",$3.00 
DESI DELI PUNJABI DHABA 724 10 AVENUE New York NY 10019,40.7686973,-73.9918181,"{lng=-73.9918181, lat=40.7686973}",$5.25 
EL BARRIO JUICE BAR DELI 308 EAST 116 STREET New York NY 10029,40.7916407,-73.9447994,"{lng=-73.9447994, lat=40.79164069999999}",$4.50 
BLUE CAFE/3 IN 1 DELI RESTAURANT 50 HOYT STREET New York NY 11201,40.689211,-73.986272,"{lng=-73.986272, lat=40.689211}",$4.25 
NEW YORK DELI 21-09 BORDEN AVENUE New York NY 11101,40.7405534,-73.9492057,"{lng=-73.9492057, lat=40.7405534}",$6.25 
STADIUM DELI 127-01 34 AVENUE New York NY 11368,40.7506343,-73.8477874,"{lng=-73.8477874, lat=40.7506343}",$6.75 
FATHER & SON DELI 2511 30 AVENUE New York NY 11102,40.7732937,-73.9286341,"{lng=-73.9286341, lat=40.7732937}",$4.00 
J & JOE DELI & GROCERY 82-39 164 STREET New York NY 11432,40.7154518,-73.7919103,"{lng=-73.7919103, lat=40.7154518}",$5.75 
NEW DREAM DELI 27-51 JACKSON AVENUE New York NY 11101,40.748406,-73.939639,"{lng=-73.939639, lat=40.748406}",$5.50 
BINGO DELI 77 PEARL STREET New York NY 10004,40.7040805,-74.0105051,"{lng=-74.0105051, lat=40.7040805}",$4.00 
SHANGRI-LA DELI 228 FORT WASHINGTON AVENUE New York NY 10032,40.8429611,-73.9419678,"{lng=-73.9419678, lat=40.8429611}",$4.75 
MD BAGELS DELI & GROCEERY 434 CASTLETON AVENUE New York NY 10301,40.6337599,-74.0971352,"{lng=-74.0971352, lat=40.6337599}",$4.00 
GARDENIA GROCERY & DELI 404 8 AVENUE New York NY 10001,40.7536854,-73.9991637,"{lng=-73.9991637, lat=40.75368539999999}",$3.75 
BLACKSMITH CAFE & DELICATESSEN 20 WEST 37 STREET New York NY 10018,40.755322,-73.9932872,"{lng=-73.9932872, lat=40.755322}",$5.75 
PARK DELI 209 NASSAU AVENUE New York NY 11222,40.725813,-73.9442933,"{lng=-73.9442933, lat=40.725813}",$3.00 
DELI & GRILL 5001 4 AVENUE New York NY 11220,40.6385229,-74.0153231,"{lng=-74.0153231, lat=40.6385229}",$4.75 
HUNTER DELI 966 LEXINGTON AVENUE New York NY 10021,40.7694587,-73.963198,"{lng=-73.96319799999999, lat=40.7694587}",$3.50 
658 KINGS DELI 658 NEW DORP LANE New York NY 10306,40.566305,-74.101954,"{lng=-74.10195399999999, lat=40.566305}",$6.25 
STAGE STAR DELI 105 WEST 55 STREET New York NY 10019,40.7686973,-73.9918181,"{lng=-73.9918181, lat=40.7686973}",$5.25 
H.J.M. DELI 1380 BRONX RIVER AVE New York NY 10472,40.8335401,-73.879941,"{lng=-73.879941, lat=40.8335401}",$6.25 
LA ESPERANZA MEXICAN DELI GROCERY & VEGETABLES 2029 GRAND CONCOURSE New York NY 10453,40.8521811,-73.9044626,"{lng=-73.9044626, lat=40.8521811}",$3.00 
KENNEDY DELI 157-05 ROCKAWAY BOULEVARD New York NY 11434,40.666296,-73.779062,"{lng=-73.779062, lat=40.666296}",$6.75 
MOON PALACE DELI 496 ATLANTIC AVENUE New York NY 11217,40.685484,-73.981917,"{lng=-73.981917, lat=40.685484}",$5.75 
NEALTICAN DELI ANTOJITOS MEXICANOS 1225 FLUSHING AVENUE New York NY 11237,40.707988,-73.923703,"{lng=-73.923703, lat=40.707988}",$3.25 
SUSHI DELIGHT 157 HESTER STREET New York NY 10013,40.71745,-73.9959961,"{lng=-73.9959961, lat=40.71745}",$4.00 
JOHAL DELI 945 COLUMBUS AVENUE New York NY 10025,40.7994054,-73.9623643,"{lng=-73.96236429999999, lat=40.7994054}",$4.00 
BUNNY DELI 1522 ST NICHOLAS AVENUE New York NY 10033,40.8524539,-73.9312305,"{lng=-73.9312305, lat=40.8524539}",$4.50 
NEW SIDE STREET DELI 187 STATE STREET New York NY 11201,40.6903491,-73.9916463,"{lng=-73.9916463, lat=40.6903491}",$5.75 
MEI SIN DELI & GROCERY 3712 ALLEN STREET New York NY 10002,40.7187283,-73.9907748,"{lng=-73.9907748, lat=40.7187283}",$6.25 
OAXACA DELI AND TAQUERIA 1240 CASTLETON AVENUE New York NY 10310,40.6339957,-74.1238579,"{lng=-74.1238579, lat=40.6339957}",$5.50 
HEALTHY CHOICE DELI AND 341 7 AVENUE New York NY 11215,40.6681669,-73.9800645,"{lng=-73.9800645, lat=40.6681669}",$4.00 
DELICIOSO RESTAURANT 423 EAST 149 STREET New York NY 10455,40.8147803,-73.9080581,"{lng=-73.90805809999999, lat=40.8147803}",$4.75 
LA BAGEL DELIGHT 284 7 AVENUE New York NY 11215,40.6681669,-73.9800645,"{lng=-73.9800645, lat=40.6681669}",$3.25 
DELICIAS MEXICANAS 2109 3 AVENUE New York NY 10029,40.7916407,-73.9447994,"{lng=-73.9447994, lat=40.79164069999999}",$3.25 
DELICIA DONA MARIA RESTAURANT 88-09 JAMAICA AVENUE New York NY 11421,40.692918,-73.856145,"{lng=-73.856145, lat=40.692918}",$6.00 
NO HO JUICE BAR & DELI 208 MERCER STREET New York NY 10012,40.7266024,-73.996582,"{lng=-73.996582, lat=40.7266024}",$3.50 
MI BELLA PIAXTLA DELI & GROCERY 1904 BATH AVENUE New York NY 11214,40.602358,-74.003804,"{lng=-74.003804, lat=40.602358}",$5.75 
BOMBAY DELI PIZZA & TANDOORI RESTAURANT 367 WEST 36 STREET New York NY 10018,40.755322,-73.9932872,"{lng=-73.9932872, lat=40.755322}",$4.25 
1694 GOURMET DELI & GRILL 1694 PARK AVENUE New York NY 10035,40.8013042,-73.9422367,"{lng=-73.9422367, lat=40.8013042}",$4.75 
BLOOMS DELICATESSEN AND RESTAURANT 124 EAST 40 STREET New York NY 10016,40.74727,-73.9800645,"{lng=-73.9800645, lat=40.74727}",$4.25 
PAPA JOHN'S DELI 325 CITY ISLAND AVENUE New York NY 10464,40.847642,-73.786942,"{lng=-73.786942, lat=40.847642}",$4.25 
URIS DELI (URIS HALL) MAIN CAMPUS 411 WEST 116 STREET New York NY 10027,40.8138912,-73.9624327,"{lng=-73.96243270000001, lat=40.8138912}",$4.00 
TINOS DELICATESSEN 2410 ARTHUR AVENUE New York NY 10458,40.8557998,-73.8870496,"{lng=-73.8870496, lat=40.8557998}",$3.00 
ALNOOR HALAL DELI 672 4 AVENUE New York NY 11232,40.6560436,-74.0079781,"{lng=-74.0079781, lat=40.6560436}",$4.50 
E Z DELI 1625 BROADWAY New York NY 10019,40.7612696,-73.984413,"{lng=-73.984413, lat=40.7612696}",$6.75 
LAS DELICIAS PERUANAS RESTAURANT 4307 104 STREET New York NY 11368,40.747651,-73.860238,"{lng=-73.860238, lat=40.747651}",$3.50 
MARIO'S DELI 262 NASSAU AVENUE New York NY 11222,40.725754,-73.940556,"{lng=-73.940556, lat=40.72575399999999}",$4.75 
QUICK STOP DELI 68-06 ROOSEVELT AVENUE New York NY 11377,40.746078,-73.896914,"{lng=-73.896914, lat=40.746078}",$4.25 
GARDEN CITY DELI 607 9 AVENUE New York NY 10036,40.7602619,-73.9932872,"{lng=-73.9932872, lat=40.7602619}",$5.75 
IMPRESS DELI 401 EAST 34 STREET New York NY 10016,40.74727,-73.9800645,"{lng=-73.9800645, lat=40.74727}",$4.25 
OTHELLO DELI 2619 24 AVENUE New York NY 11102,40.774172,-73.9176905,"{lng=-73.91769049999999, lat=40.77417200000001}",$3.75 
DELISSIMO DELI & CAFE 39 EAST 60 STREET New York NY 10022,40.7593941,-73.9697795,"{lng=-73.9697795, lat=40.7593941}",$6.75 
